fuel_type_code,station_name,street_address,intersection_directions,city,state,zip,plus4,station_phone,status_code,expected_date,groups_with_access_code,access_days_time,cards_accepted,bd_blends,ng_fill_type_code,ng_psi,ev_level1_evse_num,ev_level2_evse_num,ev_dc_fast_count,ev_other_info,ev_network,ev_network_web,geocode_status,latitude,longitude,date_last_confirmed,id,updated_at,owner_type_code,federal_agency_id,federal_agency_name,open_date,hydrogen_status_link,ng_vehicle_class,lpg_primary,e85_blender_pump,ev_connector_types,country,intersection_directions_french,access_days_time_french,bd_blends_french,groups_with_access_code_french,hydrogen_is_retail,access_code,access_detail_code,federal_agency_code,facility_type,cng_dispenser_num,cng_on_site_renewable_source,cng_total_compression_capacity,cng_storage_capacity,lng_on_site_renewable_source,e85_other_ethanol_blends,ev_pricing,ev_pricing_french,lpg_nozzle_types,hydrogen_pressures,hydrogen_standards,cng_fill_type_code,cng_psi,cng_vehicle_class,lng_vehicle_class,ev_on_site_renewable_source,georeference,location
ELEC,Market 32,19 Centre Dr,,Plattsburgh,NY,12901,,518-562-3560,E,,Public,24 hours daily,,,,,,2,,,Non-Networked,,200-9,44.695363,-73.492162,2021-03-15,65281,2022-02-10T19:42:29,SG,,,2014-11-01,,,,,J1772,US,,,,Public,,public,,,GROCERY,,,,,,,Free,,,,,,,,,,POINT (-73.492162 44.695363),POINT(-73.492162 44.695363)
ELEC,Rapidpark 210 W 102nd Street - Tesla Destination,210 W 102st St,,New York,NY,10025,,212-864-8605  877-798-3752,E,,Public,24 hours daily; see valet for access,,,,,,3,,,Tesla Destination,https://www.tesla.com/destination-charging,200-9,40.797961,-73.968389,2020-11-03,115051,2021-03-11T23:22:17,P,,,2017-09-01,,,,,J1772 TESLA,US,,,,Public,,public,,,PAY_GARAGE,,,,,,,Free,,,,,,,,,,POINT (-73.968389 40.797961),POINT(-73.968389 40.797961)
ELEC,Edge,3954 NY-12,,Lyons Falls,NY,13368,,866-816-7584,E,,Public,24 hours daily,,,,,,1,,,EV Connect,http://evconnect.com/,GPS,43.621010,-75.372871,2020-04-08,123107,2021-03-11T23:22:17,P,,,2019-04-01,,,,,J1772,US,,,,Public,,public,,,HOTEL,,,,,,,,,,,,,,,,,POINT (-75.3728714 43.6210096999999),POINT(-75.372871 43.621010)
ELEC,PANYNJ JFK Y GARAGE 4,JFK Terminal 5 JFK International Airport,,Queens,NY,11430,,888-758-4389,E,,Public,24 hours daily,,,,,,2,,,ChargePoint Network,http://www.chargepoint.com/,GPS,40.645841,-73.779222,2022-03-29,147470,2022-03-29T00:38:17,,,,2019-11-02,,,,,J1772,US,,,,Public,,public,,,,,,,,,,,,,,,,,,,,POINT (-73.779222 40.645841),POINT(-73.779222 40.645841)
ELEC,KINGSTON VW STATION 1,1249 Ulster Ave,,Kingston,NY,12401,,888-758-4389,E,,Public,24 hours daily,,,,,,2,,,ChargePoint Network,http://www.chargepoint.com/,GPS,41.967208,-73.990374,2022-03-29,183754,2022-03-29T00:38:17,,,,2021-02-04,,,,,J1772,US,,,,Public,,public,,,,,,,,,,,,,,,,,,,,POINT (-73.990374 41.967208),POINT(-73.990374 41.967208)
ELEC,"EAST GARAGE 1 E GARAGE #1",2 Bay Club Dr,,Bayside,NY,11360,,888-758-4389,E,,Public,24 hours daily,,,,,,2,,,ChargePoint Network,http://www.chargepoint.com/,GPS,40.778036,-73.780899,2022-03-29,190874,2022-03-29T00:38:17,,,,2021-06-10,,,,,J1772,US,,,,Public,,public,,,,,,,,,,,,,,,,,,,,POINT (-73.780899 40.778036),POINT(-73.780899 40.778036)
ELEC,RIVERWATCH EV1 STATION1,1020 Warburton Ave,,Yonkers,NY,10701,,888-758-4389,E,,Public,24 hours daily,,,,,,2,,,ChargePoint Network,http://www.chargepoint.com/,GPS,40.970419,-73.889216,2022-03-29,205066,2022-03-29T00:38:17,,,,2022-01-20,,,,,J1772,US,,,,Public,,public,,,,,,,,,,,,,,,,,,,,POINT (-73.889216 40.970419),POINT(-73.889216 40.970419)
ELEC,WHITEFACE MT WHITEFACE MT 3,5021 Route 86,,Wilmington,NY,12997,,888-758-4389,E,,Public,24 hours daily,,,,,,2,,,ChargePoint Network,http://www.chargepoint.com/,GPS,44.359064,-73.858857,2022-03-29,182171,2022-03-29T00:38:17,,,,2021-01-27,,,,,J1772,US,,,,Public,,public,,,,,,,,,,,,,,,,,,,,POINT (-73.858857 44.359064),POINT(-73.858857 44.359064)
ELEC,The Alpine Lodge - Tesla Destination,264 Main St,,North Creek,NY,12853,,518-251-2451  877-798-3752,E,,Public,24 hours daily; for customer use only; see front desk for access,,,,,,2,,,Tesla Destination,https://www.tesla.com/destination-charging,200-9,43.700216,-73.986141,2020-11-03,115200,2021-03-11T23:22:17,P,,,2018-11-01,,,,,TESLA,US,,,,Public,,public,,,HOTEL,,,,,,,Free,,,,,,,,,,POINT (-73.986141 43.700216),POINT(-73.986141 43.700216)
ELEC,Glen Avenue Suites,6 Glen Ave,,Cooperstown,NY,13326,,607-547-5054,E,,Public,8am-6pm daily; for guest use only,,,,,,1,,,Non-Networked,,GPS,42.698540,-74.931170,2020-03-03,131661,2022-02-24T19:51:12,P,,,2019-07-15,,,,,J1772,US,,,,Public,,public,,,INN,,,,,,,Free,,,,,,,,,,POINT (-74.93117 42.69854),POINT(-74.931170 42.698540)
ELEC,Legend Nissan,268 Jericho Turnpike,,Syosset,NY,11791,,516-496-8181,E,,Public,Dealership business hours,,,,,,1,1,,Non-Networked,,200-9,40.809865,-73.507761,2022-03-07,44203,2022-03-07T19:49:53,P,,,2011-11-30,,,,,CHADEMO J1772 J1772COMBO,US,,,,Public,,public,,,CAR_DEALER,,,,,,,Free,,,,,,,,,,POINT (-73.507761 40.809865),POINT(-73.507761 40.809865)
ELEC,POUGHEEPSIE EV POUGHKEEPSIE 1,41 Civic Center Plaza,,Poughkeepsie,NY,12601,,888-758-4389,E,,Public,Mon 12:00am - 12:00am; Tue 12:00am - 12:00am; Wed 12:00am - 12:00am; Thu 12:00am - 12:00am; Fri 12:00am - 12:00am; Sat 12:00am - 12:00am; Sun 12:00am - 12:00am,,,,,,2,,,ChargePoint Network,http://www.chargepoint.com/,GPS,41.704770,-73.927310,2022-03-29,183106,2022-03-29T00:38:17,,,,2021-01-27,,,,,J1772,US,,,,Public,,public,,,,,,,,,,,,,,,,,,,,POINT (-73.92731 41.70477),POINT(-73.927310 41.704770)
ELEC,NATIONAL GRID KOHLS SARATOGA,79 Weibel Rd,,Saratoga Springs,NY,12866,,888-758-4389,E,,Public,24 hours daily,,,,,,2,,,ChargePoint Network,http://www.chargepoint.com/,GPS,43.097209,-73.746601,2022-03-29,162196,2022-03-29T00:38:17,,,,2020-06-12,,,,,J1772,US,,,,Public,,public,,,,,,,,,,,,,,,,,,,,POINT (-73.746601 43.097209),POINT(-73.746601 43.097209)
ELEC,CHHA2 Garages,532 W 122nd St,,New York,NY,10027,,866-816-7584,E,,Public - Credit card at all times,24 hours daily; Also accepts PayPal and Apple Pay,A D M V,,,,,4,,,EV Connect,http://evconnect.com/,GPS,40.811438,-73.960481,2020-12-03,168414,2021-03-11T23:22:17,P,,,2020-08-28,,,,,J1772,US,,,,Public - Carte de crédit en tout temps,,public,CREDIT_CARD_ALWAYS,,PAY_GARAGE,,,,,,,,,,,,,,,,,POINT (-73.960481 40.811438),POINT(-73.960481 40.811438)
ELEC,333 Schermerhorn Garage - The Hub - Tesla Destination,333 Schermerhorn St,,Brooklyn,NY,11217,,718-395-4072  877-798-3752,E,,Public,24 hours daily; pay lot; see valet for access,,,,,,4,,,Tesla Destination,https://www.tesla.com/destination-charging,200-9,40.687220,-73.981174,2020-11-03,150532,2021-03-11T23:22:17,P,,,2019-09-30,,,,,TESLA,US,,,,Public,,public,,,,,,,,,,Free,,,,,,,,,,POINT (-73.981174 40.68722),POINT(-73.981174 40.687220)
ELEC,Stewart's Shops - Tesla Supercharger,5805 NY-9G,,Hudson,NY,12534,,877-798-3752,E,,Public - Credit card at all times,24 hours daily,A D Debit M V,,,,,,8,,Tesla,https://www.tesla.com/supercharger,GPS,42.223280,-73.826266,2022-02-10,205810,2022-02-10T19:42:29,P,,,2022-02-04,,,,,TESLA,US,,,,Public - Carte de crédit en tout temps,,public,CREDIT_CARD_ALWAYS,,GAS_STATION,,,,,,,,,,,,,,,,,POINT (-73.8262663396156 42.2232799276574),POINT(-73.826266 42.223280)
ELEC,ESF STATION 8,Stadium Place,,Syracuse,NY,13210,,888-758-4389,E,,Public,24 hours daily,,,,,,2,,,ChargePoint Network,http://www.chargepoint.com/,GPS,43.035231,-76.139688,2022-03-29,197198,2022-03-29T00:38:17,,,,2021-10-07,,,,,J1772,US,,,,Public,,public,,,,,,,,,,,,,,,,,,,,POINT (-76.139688 43.035231),POINT(-76.139688 43.035231)
ELEC,VOB KENSINGTON 1,15 Kensington Terrace,,Bronxville,NY,10708,,888-758-4389,E,,Public,Mon 3:00pm - 12:00am; Tue 3:00pm - 12:00am; Wed 3:00pm - 12:00am; Thu 3:00pm - 12:00am; Fri 3:00pm - 12:00am; Sat 6:00am - 12:00am; Sun 6:00am - 12:00am,,,,,,2,,,ChargePoint Network,http://www.chargepoint.com/,GPS,40.942543,-73.834410,2022-03-29,165221,2022-03-29T00:38:17,,,,2020-08-14,,,,,J1772,US,,,,Public,,public,,,,,,,,,,,,,,,,,,,,POINT (-73.83441 40.942543),POINT(-73.834410 40.942543)
ELEC,COLGATE LALLY LANE 1,Lally Ln,,Hamilton,NY,13346,,888-758-4389,E,,Public,24 hours daily,,,,,,2,,,ChargePoint Network,http://www.chargepoint.com/,GPS,42.817555,-75.539265,2022-03-29,162445,2022-03-29T00:38:17,,,,2020-06-12,,,,,J1772,US,,,,Public,,public,,,,,,,,,,,,,,,,,,,,POINT (-75.539265 42.817555),POINT(-75.539265 42.817555)
ELEC,799 SENECA STATION 9,799 Seneca St,,Buffalo,NY,14210,,888-758-4389,E,,Public,Mon 5:00pm - 10:00pm; Tue 5:00pm - 10:00pm; Wed 5:00pm - 10:00pm; Thu 5:00pm - 10:00pm; Fri 5:00pm - 10:00pm; Sat 8:00am - 10:00pm; Sun 8:00am - 10:00pm,,,,,,1,,,ChargePoint Network,http://www.chargepoint.com/,GPS,42.875123,-78.847439,2022-03-29,191251,2022-03-29T00:38:17,,,,2021-06-19,,,,,J1772,US,,,,Public,,public,,,,,,,,,,,,,,,,,,,,POINT (-78.847439 42.875123),POINT(-78.847439 42.875123)
ELEC,Momentive,260 Hudson River Rd,,Waterford,NY,12188,,866-816-7584,E,,Public,24 hours daily,,,,,,1,,,EV Connect,http://evconnect.com/,GPS,42.817808,-73.666527,2020-04-08,123090,2021-03-11T23:22:17,P,,,2019-04-01,,,,,J1772,US,,,,Public,,public,,,OFFICE_BLDG,,,,,,,,,,,,,,,,,POINT (-73.6665266 42.8178075999999),POINT(-73.666527 42.817808)
ELEC,"GARDEN CHARGERS JOVIA #2",1000 Corporate Dr,,Westbury,NY,11590,,888-758-4389,E,,Public,24 hours daily,,,,,,2,,,ChargePoint Network,http://www.chargepoint.com/,GPS,40.740106,-73.601104,2022-03-29,174506,2022-03-29T00:38:17,,,,2021-01-27,,,,,J1772,US,,,,Public,,public,,,,,,,,,,,,,,,,,,,,POINT (-73.601104 40.740106),POINT(-73.601104 40.740106)
ELEC,NATIONAL GRID BUFFALO ZOO,300 Parkside Ave,,Buffalo,NY,14214,,888-758-4389,E,,Public,24 hours daily,,,,,,2,,,ChargePoint Network,http://www.chargepoint.com/,GPS,42.937071,-78.851964,2022-03-29,162212,2022-03-29T00:38:17,,,,2020-06-12,,,,,J1772,US,,,,Public,,public,,,,,,,,,,,,,,,,,,,,POINT (-78.851964 42.937071),POINT(-78.851964 42.937071)
ELEC,STONY BROOK UNV ENGINEERING,Engineering Dr,,Stony Brook,NY,11790,,888-758-4389,E,,Public,24 hours daily,,,,,,2,,,ChargePoint Network,http://www.chargepoint.com/,GPS,40.912355,-73.125968,2022-03-29,169335,2022-03-29T00:38:17,,,,2020-11-19,,,,,J1772,US,,,,Public,,public,,,,,,,,,,,,,,,,,,,,POINT (-73.125968 40.912355),POINT(-73.125968 40.912355)
ELEC,VERONA LA QUINTA 1,5390 Willow Pl,,Verona,NY,13478,,888-758-4389,E,,Public,24 hours daily,,,,,,2,,,ChargePoint Network,http://www.chargepoint.com/,GPS,43.122160,-75.592600,2022-03-29,181238,2022-03-29T00:38:17,,,,2021-01-27,,,,,J1772,US,,,,Public,,public,,,,,,,,,,,,,,,,,,,,POINT (-75.5926 43.12216),POINT(-75.592600 43.122160)
ELEC,OSSINING TOWN LOUIS ENGEL,Louis Engel Park (Waterfront Park) 161-185 We,,Ossining,NY,10562,,888-758-4389,E,,Public,24 hours daily,,,,,,2,,,ChargePoint Network,http://www.chargepoint.com/,GPS,41.156094,-73.869640,2022-03-29,162297,2022-03-29T00:38:17,,,,2020-06-12,,,,,J1772,US,,,,Public,,public,,,,,,,,,,,,,,,,,,,,POINT (-73.86964 41.156094),POINT(-73.869640 41.156094)
ELEC,Parkright 738 Greenwich Street - Tesla Destination,738 Greenwich St,,New York,NY,10014,,212-247-7303  877-798-3752,E,,Public,24 hours daily; see valet for access,,,,,,3,,,Tesla Destination,https://www.tesla.com/destination-charging,200-9,40.735165,-74.007231,2020-11-03,115182,2021-03-11T23:22:17,P,,,2016-08-15,,,,,J1772 TESLA,US,,,,Public,,public,,,PAY_GARAGE,,,,,,,Free,,,,,,,,,,POINT (-74.007231 40.735165),POINT(-74.007231 40.735165)
ELEC,RCP MAIN PARKING,4254 NY-43,,Wynantskill,NY,12198,,888-758-4389,E,,Public,24 hours daily,,,,,,2,,,ChargePoint Network,http://www.chargepoint.com/,GPS,42.653034,-73.652079,2022-03-29,196298,2022-03-29T00:38:17,,,,2021-09-24,,,,,J1772,US,,,,Public,,public,,,,,,,,,,,,,,,,,,,,POINT (-73.652079 42.653034),POINT(-73.652079 42.653034)
ELEC,WARRENCOUNTY DPW 3,1348 U.S. 9,,Lake George,NY,12845,,888-758-4389,E,,Public,24 hours daily,,,,,,2,,,ChargePoint Network,http://www.chargepoint.com/,GPS,43.359019,-73.701171,2022-03-29,150257,2022-03-29T00:38:17,,,,2019-12-17,,,,,J1772,US,,,,Public,,public,,,,,,,,,,,,,,,,,,,,POINT (-73.701171 43.359019),POINT(-73.701171 43.359019)
ELEC,WYOMING COUNTY STATION 1,23 W Buffalo St,,Warsaw,NY,14569,,888-758-4389,E,,Public,24 hours daily,,,,,,2,,,ChargePoint Network,http://www.chargepoint.com/,GPS,42.740624,-78.133705,2022-03-29,162368,2022-03-29T00:38:17,,,,2020-06-12,,,,,J1772,US,,,,Public,,public,,,,,,,,,,,,,,,,,,,,POINT (-78.133705 42.740624),POINT(-78.133705 42.740624)
ELEC,GGMC Parking 75 Smith St Garage - Tesla Destination,75 Smith St,,Brooklyn,NY,11201,,718-643-0593  877-798-3752,E,,Public,24 hours daily; see valet for access,,,,,,3,,,Tesla Destination,https://www.tesla.com/destination-charging,200-9,40.688799,-73.988642,2020-11-03,114913,2021-03-11T23:22:17,P,,,2016-01-01,,,,,J1772 TESLA,US,,,,Public,,public,,,PAY_GARAGE,,,,,,,Free,,,,,,,,,,POINT (-73.988642 40.688799),POINT(-73.988642 40.688799)
ELEC,PRESHYUN PRESTIGE NONGW2,768 E Chester St,,Kingston,NY,12401,,888-758-4389,E,,Public,24 hours daily,,,,,,1,,,ChargePoint Network,http://www.chargepoint.com/,GPS,41.957714,-73.990067,2022-03-29,202247,2022-03-29T00:38:17,,,,2021-12-09,,,,,J1772,US,,,,Public,,public,,,,,,,,,,,,,,,,,,,,POINT (-73.990067 41.957714),POINT(-73.990067 41.957714)
ELEC,NATIONAL GRID RIVERVIEW SOLAR,600 Riverwalk Pkwy,,Tonawanda,NY,14150,,888-758-4389,E,,Public,24 hours daily,,,,,,2,,,ChargePoint Network,http://www.chargepoint.com/,GPS,43.000068,-78.910950,2022-03-29,162247,2022-03-29T00:38:17,,,,2020-06-12,,,,,J1772,US,,,,Public,,public,,,,,,,,,,,,,,,,,,,,POINT (-78.91095 43.000068),POINT(-78.910950 43.000068)
ELEC,Village of Spencerport - Town Hall,27 West Ave,Located behind the Village office at South Union Street (Rt. 259),Spencerport,NY,14559,,585-352-4771,E,,Public,24 hours daily,,,,,,2,,,Non-Networked,,GPS,43.191311,-77.801933,2022-03-07,63140,2022-03-07T19:49:53,LG,,,2014-07-20,,,,,J1772,US,,,,Public,,public,,,MUNI_GOV,,,,,,,Free,,,,,,,,,,POINT (-77.801933 43.191311),POINT(-77.801933 43.191311)
ELEC,"Site Centers The Hub (Hempstead, NY)",132-178 Fulton Ave,,Hempstead,NY,11550,,833-632-2778,E,,Public,24 hours daily,,,,,,,4,,Electrify America,https://www.electrifyamerica.com/,GPS,40.706011,-73.630952,2022-03-29,211861,2022-03-29T04:34:23,,,,2022-03-17,,,,,CHADEMO J1772COMBO,US,,,,Public,,public,,,,,,,,,,,,,,,,,,,,POINT (-73.630952 40.706011),POINT(-73.630952 40.706011)
ELEC,RRH RIEDMAN CANP1,100 Kings Hwy S,,Rochester,NY,14617,,888-758-4389,E,,Public,24 hours daily,,,,,,2,,,ChargePoint Network,http://www.chargepoint.com/,GPS,43.201813,-77.574597,2022-03-29,173967,2022-03-29T00:38:17,,,,2021-01-27,,,,,J1772,US,,,,Public,,public,,,,,,,,,,,,,,,,,,,,POINT (-77.574597 43.201813),POINT(-77.574597 43.201813)
ELEC,Adirondack Pub & Brewery,33 Canada St,,Lake George,NY,12845,,866-816-7584,E,,Public - Credit card at all times,24 hours daily; Also accepts Paypal,A D M V,,,,,4,,,EV Connect,http://evconnect.com/,GPS,43.418575,-73.713812,2020-04-08,155025,2021-03-11T23:22:17,P,,,2019-08-07,,,,,J1772,US,,,,Public - Carte de crédit en tout temps,,public,CREDIT_CARD_ALWAYS,,BREWERY_DISTILLERY_WINERY,,,,,,,,,,,,,,,,,POINT (-73.7138123 43.4185749),POINT(-73.713812 43.418575)
ELEC,COLE GROUP COLE GROUP 2,12 Doorstone Dr,,Latham,NY,12110,,888-758-4389,E,,Public,24 hours daily,,,,,,2,,,ChargePoint Network,http://www.chargepoint.com/,GPS,42.745613,-73.772060,2022-03-29,154705,2022-03-29T00:38:17,,,,2020-03-25,,,,,J1772,US,,,,Public,,public,,,,,,,,,,,,,,,,,,,,POINT (-73.77206 42.745613),POINT(-73.772060 42.745613)
ELEC,CITY AMSTERDAM EV4,117 Hewitt Street Shuttleworth Park,,Amsterdam,NY,12010,,888-758-4389,E,,Public,24 hours daily,,,,,,2,,,ChargePoint Network,http://www.chargepoint.com/,GPS,42.960309,-74.172250,2022-03-29,186156,2022-03-29T00:38:17,,,,2021-03-13,,,,,J1772,US,,,,Public,,public,,,,,,,,,,,,,,,,,,,,POINT (-74.17225 42.960309),POINT(-74.172250 42.960309)
ELEC,VANKAY PUBLIC STATION 2,5 McCrea Hill Rd,,Ballston Spa,NY,12020,,888-758-4389,E,,Public,24 hours daily,,,,,,2,,,ChargePoint Network,http://www.chargepoint.com/,GPS,42.966560,-73.857687,2022-03-29,186633,2022-03-29T00:38:17,,,,2021-03-27,,,,,J1772,US,,,,Public,,public,,,,,,,,,,,,,,,,,,,,POINT (-73.857687 42.96656),POINT(-73.857687 42.966560)
ELEC,iPark 400 E 85th St - Tesla Destination,400 E 85th St,,Manhattan,NY,10028,,212-650-1683  877-798-3752,E,,Public,24 hours daily; pay lot; see valet for access,,,,,,4,,,Tesla Destination,https://www.tesla.com/destination-charging,200-8,40.776008,-73.949934,2020-11-03,122489,2021-03-11T23:22:17,P,,,2019-03-01,,,,,TESLA,US,,,,Public,,public,,,,,,,,,,Free,,,,,,,,,,POINT (-73.949934 40.776008),POINT(-73.949934 40.776008)
ELEC,"TWN POUND RIDGE STATION #1",80 Westchester Ave,,Pound Ridge,NY,10576,,888-758-4389,E,,Public,24 hours daily,,,,,,2,,,ChargePoint Network,http://www.chargepoint.com/,GPS,41.190993,-73.553184,2022-03-29,188058,2022-03-29T00:38:17,,,,2021-04-28,,,,,J1772,US,,,,Public,,public,,,,,,,,,,,,,,,,,,,,POINT (-73.553184 41.190993),POINT(-73.553184 41.190993)
ELEC,Shults Nissan,311 Fluvanna Ave,,Jamestown,NY,14701,,716-484-2780,E,,Public - Call ahead,Dealership business hours,,,,,,1,,,Non-Networked,,200-9,42.115661,-79.253776,2020-06-09,49932,2021-03-11T23:22:17,P,,,2012-10-25,,,,,J1772,US,,,,Public - Appeler à l'avance,,public,CALL,,CAR_DEALER,,,,,,,Free,,,,,,,,,,POINT (-79.253776 42.115661),POINT(-79.253776 42.115661)
ELEC,Travelers Parking,160 W 10th Street,Located between 7th Ave & Waverly Place. Attendant will assist in charging vehicle.  Parking rates apply. Inquire within.,New York,NY,10014,,888-998-2546,E,,Public,MON: 24 hours | TUE: 24 hours | WED: 24 hours | THU: 24 hours | FRI: 24 hours | SAT: 24 hours | SUN: 24 hours,,,,,,1,,,Blink Network,http://www.blinkcharging.com/,GPS,40.735094,-74.001870,2022-03-29,187817,2022-03-29T02:05:23,,,,2021-04-20,,,,,J1772,US,,,,Public,,public,,,,,,,,,,Level 2: $0.59 per kWh,,,,,,,,,,POINT (-74.00187 40.735094),POINT(-74.001870 40.735094)
ELEC,ROCKLAND COUNTY STATION 2,100 Baron Court,,Monsey,NY,10952,,888-758-4389,E,,Public,24 hours daily,,,,,,2,,,ChargePoint Network,http://www.chargepoint.com/,GPS,41.105846,-74.069285,2022-03-29,181699,2022-03-29T00:38:17,,,,2021-01-27,,,,,J1772,US,,,,Public,,public,,,,,,,,,,,,,,,,,,,,POINT (-74.069285 41.105846),POINT(-74.069285 41.105846)
ELEC,TCR TOWNE EV STATION 2,12 California ave,,Albany,NY,12205,,888-758-4389,E,,Public,24 hours daily,,,,,,2,,,ChargePoint Network,http://www.chargepoint.com/,GPS,42.704044,-73.813849,2022-03-29,181866,2022-03-29T00:38:17,,,,2021-01-27,,,,,J1772,US,,,,Public,,public,,,,,,,,,,,,,,,,,,,,POINT (-73.813849 42.704044),POINT(-73.813849 42.704044)
ELEC,24 STATE STREET PITTSFORD,14 State St,,Pittsford,NY,14534,,888-758-4389,E,,Public,24 hours daily,,,,,,2,,,ChargePoint Network,http://www.chargepoint.com/,GPS,43.091210,-77.514398,2022-03-29,162347,2022-03-29T00:38:17,,,,2020-06-12,,,,,J1772,US,,,,Public,,public,,,,,,,,,,,,,,,,,,,,POINT (-77.514398 43.09121),POINT(-77.514398 43.091210)
ELEC,ULSTER COUNTY DSS 2,1 Development Court,,Kingston,NY,12401,,888-758-4389,E,,Public,24 hours daily,,,,,,2,,,ChargePoint Network,http://www.chargepoint.com/,GPS,41.947950,-73.996324,2022-03-29,180145,2022-03-29T00:38:17,,,,2021-01-27,,,,,J1772,US,,,,Public,,public,,,,,,,,,,,,,,,,,,,,POINT (-73.996324 41.94795),POINT(-73.996324 41.947950)
ELEC,Staten Island Mall - Richmond Ave Entrance,2655 Richmond Ave,,Staten Island,NY,10314,,888-264-2208,E,,Public,6am-12am daily,,,,,,2,,,Volta,https://voltacharging.com/,GPS,40.581751,-74.168466,2021-04-08,166729,2022-02-10T19:42:29,P,,,2020-08-31,,,,,J1772,US,,,,Public,,public,,,SHOPPING_MALL,,,,,,,,,,,,,,,,,POINT (-74.168466 40.581751),POINT(-74.168466 40.581751)
E85,ShopRite,1730 Central Ave,,Colonie,NY,12205,,518-250-5072,E,,Public,24 hours daily,A Cash CREDIT D Debit M V,,,,,,,,,,200-9,42.724590,-73.843493,2022-01-10,203058,2022-03-08T23:30:51,P,,,2021-12-27,,,,true,,US,,,,Public,,public,,,GROCERY,,,,,,"[""E15""]",,,,,,,,,,,POINT (-73.843493 42.72459),POINT(-73.843493 42.724590)
ELEC,S.A.N.Y. STATION TWO,1001 Park Ave,,Syracuse,NY,13204,,888-758-4389,E,,Public,24 hours daily,,,,,,1,,,ChargePoint Network,http://www.chargepoint.com/,GPS,43.051903,-76.180115,2022-03-29,180984,2022-03-29T00:38:17,,,,2021-01-27,,,,,J1772,US,,,,Public,,public,,,,,,,,,,,,,,,,,,,,POINT (-76.180115 43.051903),POINT(-76.180115 43.051903)
ELEC,COMFORT- CHARGE STATION 1,4054 ny-9l,,Lake George,NY,12845,,888-758-4389,E,,Public,24 hours daily,,,,,,2,,,ChargePoint Network,http://www.chargepoint.com/,GPS,43.411860,-73.708450,2022-03-29,170683,2022-03-29T00:38:17,,,,2020-12-31,,,,,J1772,US,,,,Public,,public,,,,,,,,,,,,,,,,,,,,POINT (-73.70845 43.41186),POINT(-73.708450 43.411860)
ELEC,DEWITT EV 1 CHARGEPOINT,5400 Butternut Drive,,East Syracuse,NY,13057,,888-758-4389,E,,Public,24 hours daily,,,,,,2,,,ChargePoint Network,http://www.chargepoint.com/,GPS,43.045918,-76.049853,2022-03-29,180106,2022-03-29T00:38:17,,,,2021-01-27,,,,,J1772,US,,,,Public,,public,,,,,,,,,,,,,,,,,,,,POINT (-76.049853 43.045918),POINT(-76.049853 43.045918)
ELEC,OPVMCVETERINARY OPVMC 1,3930 N Buffalo St,,Orchard Park,NY,14127,,888-758-4389,E,,Public,24 hours daily,,,,,,2,,,ChargePoint Network,http://www.chargepoint.com/,GPS,42.776591,-78.746236,2022-03-29,185152,2022-03-29T00:38:17,,,,2021-02-18,,,,,J1772,US,,,,Public,,public,,,,,,,,,,,,,,,,,,,,POINT (-78.746236 42.776591),POINT(-78.746236 42.776591)
ELEC,Icon Parking 169 W 95th Street - Tesla Destination,169  W 95th St,,New York,NY,10025,,212-749-6218  877-798-3752,E,,Public,24 hours daily; see valet for access,,,,,,3,,,Tesla Destination,https://www.tesla.com/destination-charging,200-9,40.793528,-73.970240,2020-11-03,115030,2021-03-11T23:22:17,P,,,2016-05-01,,,,,J1772 TESLA,US,,,,Public,,public,,,PAY_GARAGE,,,,,,,Free,,,,,,,,,,POINT (-73.97024 40.793528),POINT(-73.970240 40.793528)
ELEC,BEVERWYCK STATION 4,12 Hickory Dr Beverwyck,,Slingerlands,NY,12159,,888-758-4389,E,,Public,24 hours daily,,,,,,2,,,ChargePoint Network,http://www.chargepoint.com/,GPS,42.659280,-73.836850,2022-03-29,164421,2022-03-29T00:38:17,,,,2020-07-22,,,,,J1772,US,,,,Public,,public,,,,,,,,,,,,,,,,,,,,POINT (-73.83685 42.65928),POINT(-73.836850 42.659280)
ELEC,TANNERSVILLE MUNICIPAL LOT,20 Tompkins St,,Tannersville,NY,12485,,888-758-4389,E,,Public,24 hours daily,,,,,,2,,,ChargePoint Network,http://www.chargepoint.com/,GPS,42.195133,-74.132420,2022-03-29,152438,2022-03-29T00:38:17,,,,2020-01-15,,,,,J1772,US,,,,Public,,public,,,,,,,,,,,,,,,,,,,,POINT (-74.13242 42.195133),POINT(-74.132420 42.195133)
ELEC,iPark 247 N 7th Street - Tesla Destination,249 N 7th St,,Brooklyn,NY,11248,,929-337-8633  877-798-3752,E,,Public,24 hours daily; see valet for access,,,,,,3,,,Tesla Destination,https://www.tesla.com/destination-charging,200-9,40.716085,-73.954508,2020-11-03,114894,2021-03-11T23:22:17,P,,,2017-03-01,,,,,J1772 TESLA,US,,,,Public,,public,,,PAY_GARAGE,,,,,,,Free,,,,,,,,,,POINT (-73.954508 40.716085),POINT(-73.954508 40.716085)
ELEC,854ELLICOTT 589 ELLICOTT 7,589 Ellicott St,,Buffalo,NY,14203,,888-758-4389,E,,Public,24 hours daily,,,,,,2,,,ChargePoint Network,http://www.chargepoint.com/,GPS,42.895780,-78.868307,2022-03-29,169907,2022-03-29T00:38:17,,,,2020-12-04,,,,,J1772,US,,,,Public,,public,,,,,,,,,,,,,,,,,,,,POINT (-78.868307 42.89578),POINT(-78.868307 42.895780)
ELEC,NYSE Thruway - NYPA,447 I-90W,,Angola,NY,14006,,866-816-7584,E,,Public - Credit card at all times,24 hours daily; Also accepts PayPal,A APPLE_PAY D M V,,,,,,2,,EV Connect,http://evconnect.com/,GPS,42.635718,-78.990468,2021-06-07,190222,2021-12-06T18:36:15,LG,,,2021-03-04,,,,,CHADEMO J1772COMBO,US,,,,Public - Carte de crédit en tout temps,,public,CREDIT_CARD_ALWAYS,,STATE_GOV,,,,,,,,,,,,,,,,,POINT (-78.990468 42.635718),POINT(-78.990468 42.635718)
ELEC,TPWC TPCW 7,2594 Western Av,,Altamont,NY,12009,,888-758-4389,E,,Public,24 hours daily,,,,,,1,,,ChargePoint Network,http://www.chargepoint.com/,GPS,42.713851,-73.935606,2022-03-29,211655,2022-03-29T00:38:17,,,,2022-03-12,,,,,J1772,US,,,,Public,,public,,,,,,,,,,,,,,,,,,,,POINT (-73.935606 42.713851),POINT(-73.935606 42.713851)
ELEC,MARKET 32 EV BARNEY RD EV4,1 S Barney Rd,,Clifton Park,NY,12065,,888-758-4389,E,,Public,24 hours daily,,,,,,2,,,ChargePoint Network,http://www.chargepoint.com/,GPS,42.845312,-73.807884,2022-03-29,156641,2022-03-29T00:38:17,,,,2020-05-23,,,,,J1772,US,,,,Public,,public,,,,,,,,,,,,,,,,,,,,POINT (-73.807884 42.845312),POINT(-73.807884 42.845312)
ELEC,Queens Borough Hall - Municipal Parking Lot,80-25 126th St,,Queens,NY,11415,,866-816-7584,E,,Public,24 hours daily,,,,,,4,,,EV Connect,http://evconnect.com/,GPS,40.714376,-73.826095,2020-04-08,123134,2021-03-11T23:22:17,P,,,2019-04-01,,,,,J1772,US,,,,Public,,public,,,PARKING_GARAGE,,,,,,,,,,,,,,,,,POINT (-73.826095 40.714376),POINT(-73.826095 40.714376)
ELEC,"HUDSON PRESERVE BLDG 19 #13",1601 Beryl Way,,Watervliet,NY,12189,,888-758-4389,E,,Public,24 hours daily,,,,,,2,,,ChargePoint Network,http://www.chargepoint.com/,GPS,42.732864,-73.726690,2022-03-29,143251,2022-03-29T00:38:17,,,,2019-08-15,,,,,J1772,US,,,,Public,,public,,,,,,,,,,,,,,,,,,,,POINT (-73.72669 42.732864),POINT(-73.726690 42.732864)
ELEC,Paumanok Vineyards - Tesla Destination,1074 Main Rd,,Aquebogue,NY,11931,,631-722-8800  877-798-3752,E,,Public - Call ahead,24 hours daily; for customer use only,,,,,,1,,,Tesla Destination,https://www.tesla.com/destination-charging,GPS,40.948725,-72.602594,2020-11-03,114880,2021-03-11T23:22:17,P,,,2017-09-01,,,,,TESLA,US,,,,Public - Appeler à l'avance,,public,CALL,,BREWERY_DISTILLERY_WINERY,,,,,,,Free,,,,,,,,,,POINT (-72.60259362432862 40.94872520718034),POINT(-72.602594 40.948725)
ELEC,The Peninsula Hotel New York - Tesla Destination,700 5th Ave,,New York,NY,10019,,212-956 2888  877-798-3752,E,,Public,24 hours daily; for customer use only; see valet for access,,,,,,1,,,Tesla Destination,https://www.tesla.com/destination-charging,200-8,40.761780,-73.975057,2020-11-03,115181,2021-03-11T23:22:17,P,,,2016-01-01,,,,,TESLA,US,,,,Public,,public,,,HOTEL,,,,,,,Free,,,,,,,,,,POINT (-73.975057 40.76178),POINT(-73.975057 40.761780)
ELEC,iPark NYC 555 West Garage Corp. - Tesla Destination,549  W 23rd St,,New York,NY,10011,,855-472-7569  877-798-3752,E,,Public,24 hours daily; for customer use only; see valet for access,,,,,,3,,,Tesla Destination,https://www.tesla.com/destination-charging,200-9,40.748931,-74.006078,2020-11-03,150502,2021-03-11T23:22:17,P,,,2019-09-30,,,,,J1772 TESLA,US,,,,Public,,public,,,,,,,,,,Free,,,,,,,,,,POINT (-74.006078 40.748931),POINT(-74.006078 40.748931)
ELEC,Parking Garage,2478 Jerome Ave,,Bronx,NY,10468,,866-816-7584,E,,Public,Garage business hours,,,,,,1,,,EV Connect,http://evconnect.com/,200-8,40.863131,-73.900529,2021-08-04,94830,2021-12-06T18:36:15,P,,,2015-01-08,,,,,J1772,US,,,,Public,,public,,,PAY_GARAGE,,,,,,,,,,,,,,,,,POINT (-73.900529 40.863131),POINT(-73.900529 40.863131)
ELEC,BUFFALO STATE EV STATION 3,Moore Pl,,Buffalo,NY,14222,,888-758-4389,E,,Public,24 hours daily,,,,,,2,,,ChargePoint Network,http://www.chargepoint.com/,GPS,42.935779,-78.882930,2022-03-29,191383,2022-03-29T00:38:17,,,,2021-06-23,,,,,J1772,US,,,,Public,,public,,,,,,,,,,,,,,,,,,,,POINT (-78.88293 42.935779),POINT(-78.882930 42.935779)
ELEC,HARMONY MILLS 1 WEST 1 1.4,100 N Mohawk St,,Cohoes,NY,12047,,888-758-4389,E,,Public,24 hours daily,,,,,,2,,,ChargePoint Network,http://www.chargepoint.com/,GPS,42.781513,-73.705635,2022-03-29,174726,2022-03-29T00:38:17,,,,2021-01-27,,,,,J1772,US,,,,Public,,public,,,,,,,,,,,,,,,,,,,,POINT (-73.705635 42.781513),POINT(-73.705635 42.781513)
E85,7-Eleven,1733 Old Country Rd,,Riverhead,NY,11901,,631-722-8484,E,,Public,24 hours daily,A Cash D Debit M V,,,,,,,,,,200-9,40.924056,-72.702553,2021-03-15,131994,2022-03-08T22:47:19,P,,,2019-11-19,,,,false,,US,,,,Public,,public,,,CONVENIENCE_STORE,,,,,,,,,,,,,,,,,POINT (-72.702553 40.924056),POINT(-72.702553 40.924056)
ELEC,"TATABROOKFIELD #6",11 E Loop Rd,,New York,NY,10044,,888-758-4389,E,,Public,24 hours daily,,,,,,1,,,ChargePoint Network,http://www.chargepoint.com/,GPS,40.755160,-73.955605,2022-03-29,174183,2022-03-29T00:38:17,,,,2021-01-27,,,,,J1772,US,,,,Public,,public,,,,,,,,,,,,,,,,,,,,POINT (-73.955605 40.75516),POINT(-73.955605 40.755160)
ELEC,CDTA TRAIN STATION,443 East St,,Rensselaer,NY,12144,,888-758-4389,E,,Public,24 hours daily,,,,,,2,,,ChargePoint Network,http://www.chargepoint.com/,GPS,42.640590,-73.740738,2022-03-29,162189,2022-03-29T00:38:17,,,,2020-06-12,,,,,J1772,US,,,,Public,,public,,,,,,,,,,,,,,,,,,,,POINT (-73.740738 42.64059),POINT(-73.740738 42.640590)
ELEC,IONIQ STATION2,5190 Commercial Dr,,Yorkville,NY,13495,,888-758-4389,E,,Public,24 hours daily,,,,,,1,,,ChargePoint Network,http://www.chargepoint.com/,GPS,43.113663,-75.285065,2022-03-29,204500,2022-03-29T00:38:17,,,,2022-01-08,,,,,J1772,US,,,,Public,,public,,,,,,,,,,,,,,,,,,,,POINT (-75.285065 43.113663),POINT(-75.285065 43.113663)
ELEC,Oxford Memorial Library,8 Fort Hill Park,Chargers under repair.,Oxford,NY,13830,,888-998-2546,E,,Public,MON: 24 hours | TUE: 24 hours | WED: 24 hours | THU: 24 hours | FRI: 24 hours | SAT: 24 hours | SUN: 24 hours,,,,,,2,,,Blink Network,http://www.blinkcharging.com/,GPS,42.440634,-75.596977,2022-03-29,195862,2022-03-29T02:05:23,,,,2021-09-13,,,,,J1772,US,,,,Public,,public,,,,,,,,,,Free,,,,,,,,,,POINT (-75.596977 42.440634),POINT(-75.596977 42.440634)
ELEC,Rapidpark 25-27 Beekman Street - Tesla Destination,25-27 Beekman St,,New York,NY,10038,,212-766-0871  877-798-3752,E,,Public,24 hours daily; see valet for access,,,,,,3,,,Tesla Destination,https://www.tesla.com/destination-charging,200-9,40.710628,-74.006186,2020-11-03,115071,2021-03-11T23:22:17,P,,,2017-09-01,,,,,J1772 TESLA,US,,,,Public,,public,,,PAY_GARAGE,,,,,,,Free,,,,,,,,,,POINT (-74.006186 40.710628),POINT(-74.006186 40.710628)
ELEC,RRH RIEDMAN CTR NG5,1455 East Ridge Road,,Rochester,NY,14621,,888-758-4389,E,,Public,24 hours daily,,,,,,2,,,ChargePoint Network,http://www.chargepoint.com/,GPS,43.197330,-77.578410,2022-03-29,174293,2022-03-29T00:38:17,,,,2021-01-27,,,,,J1772,US,,,,Public,,public,,,,,,,,,,,,,,,,,,,,POINT (-77.57841 43.19733),POINT(-77.578410 43.197330)
ELEC,TOWNE TV EV 2,3125-3133 Carman Rd,,Schenectady,NY,12303,,888-758-4389,E,,Public,24 hours daily,,,,,,2,,,ChargePoint Network,http://www.chargepoint.com/,GPS,42.762820,-73.939980,2022-03-29,192934,2022-03-29T00:38:17,,,,2021-07-17,,,,,J1772,US,,,,Public,,public,,,,,,,,,,,,,,,,,,,,POINT (-73.93998 42.76282),POINT(-73.939980 42.762820)
ELEC,SARATOGA CASINO STATION 5,342 Jefferson St,,Saratoga Springs,NY,12866,,888-758-4389,E,,Public,24 hours daily,,,,,,2,,,ChargePoint Network,http://www.chargepoint.com/,GPS,43.062104,-73.776278,2022-03-29,190791,2022-03-29T00:38:17,,,,2021-06-08,,,,,J1772,US,,,,Public,,public,,,,,,,,,,,,,,,,,,,,POINT (-73.776278 43.062104),POINT(-73.776278 43.062104)
ELEC,HW PATCHOGUE EV STATION 1,99 Waverly Ave,,Patchogue,NY,11772,,888-758-4389,E,,Public,24 hours daily,,,,,,2,,,ChargePoint Network,http://www.chargepoint.com/,GPS,40.768195,-73.024370,2022-03-29,191588,2022-03-29T00:38:17,,,,2021-06-29,,,,,J1772,US,,,,Public,,public,,,,,,,,,,,,,,,,,,,,POINT (-73.02437 40.768195),POINT(-73.024370 40.768195)
ELEC,SPOTCOWORK HENRIETTA,21 Goodway Drive,,Rochester,NY,14623,,888-758-4389,E,,Public,24 hours daily,,,,,,2,,,ChargePoint Network,http://www.chargepoint.com/,GPS,43.091965,-77.580734,2022-03-29,150809,2022-03-29T00:38:17,,,,2019-12-27,,,,,J1772,US,,,,Public,,public,,,,,,,,,,,,,,,,,,,,POINT (-77.580734 43.091965),POINT(-77.580734 43.091965)
ELEC,"STRONG MUSEUM STRONG L1 #4",1 Manhattan Square Dr,,Rochester,NY,14607,,888-758-4389,E,,Public,Mon 8:00am - 5:00pm; Tue 8:00am - 5:00pm; Wed 8:00am - 5:00pm; Thu 8:00am - 5:00pm; Fri 8:00am - 8:00pm; Sat 8:00am - 8:00pm; Sun 8:00am - 5:00pm,,,,,,2,,,ChargePoint Network,http://www.chargepoint.com/,GPS,43.151898,-77.600937,2022-03-29,146983,2022-03-29T00:38:17,,,,2019-10-16,,,,,J1772,US,,,,Public,,public,,,,,,,,,,,,,,,,,,,,POINT (-77.600937 43.151898),POINT(-77.600937 43.151898)
ELEC,"EXECUTIVE PARK #1",2 Executive Blvd,,Montebello,NY,10901,,888-758-4389,E,,Public,24 hours daily,,,,,,2,,,ChargePoint Network,http://www.chargepoint.com/,GPS,41.120190,-74.116860,2022-03-29,175755,2022-03-29T00:38:17,,,,2021-01-27,,,,,J1772,US,,,,Public,,public,,,,,,,,,,,,,,,,,,,,POINT (-74.11686 41.12019),POINT(-74.116860 41.120190)
ELEC,Icon Parking 150 E 58th Street - Tesla Destination,150 E 58th St,,New York,NY,10155,,212-755-8678  877-798-3752,E,,Public,24 hours daily; see valet for access,,,,,,3,,,Tesla Destination,https://www.tesla.com/destination-charging,200-9,40.761610,-73.967750,2020-11-03,115019,2021-03-11T23:22:17,P,,,2016-05-01,,,,,J1772 TESLA,US,,,,Public,,public,,,PAY_GARAGE,,,,,,,Free,,,,,,,,,,POINT (-73.96775 40.76161),POINT(-73.967750 40.761610)
ELEC,498 E 67th St,498 E 67th St,,New York,NY,10065,,888-356-8911,E,,Public,24 hours daily,,,,,,2,,,FLO,https://flo.ca/,GPS,40.763723,-73.956354,2022-03-29,194169,2022-03-29T04:48:10,,,,2021-08-21,,,,,J1772,US,,,,Public,,public,,,,,,,,,,,,,,,,,,,,POINT (-73.956354 40.763723),POINT(-73.956354 40.763723)
E85,"JOE'S KWIK MARTS #0471",31 S West St,,Homer,NY,13077,,607-597-6265,E,,Public,24 hours daily,A Cash D Debit M V,,,,,,,,,,200-9,42.634261,-76.191440,2022-01-10,87865,2022-03-08T23:44:12,P,,,2017-10-15,,,,false,,US,,,,Public,,public,,,CONVENIENCE_STORE,,,,,,,,,,,,,,,,,POINT (-76.19144 42.634261),POINT(-76.191440 42.634261)
ELEC,MUNI LOT STATION 1,2578 Main St,,Lake Placid,NY,12946,,888-758-4389,E,,Public,24 hours daily,,,,,,2,,,ChargePoint Network,http://www.chargepoint.com/,GPS,44.285329,-73.984273,2022-03-29,193883,2022-03-29T00:38:17,,,,2021-08-14,,,,,J1772,US,,,,Public,,public,,,,,,,,,,,,,,,,,,,,POINT (-73.984273 44.285329),POINT(-73.984273 44.285329)
ELEC,STATION TOR1 CRAWFORD NORTH,122 N Ridge St,,Port Chester,NY,10573,,888-758-4389,E,,Public,24 hours daily,,,,,,2,,,ChargePoint Network,http://www.chargepoint.com/,GPS,41.015065,-73.686638,2022-03-29,145318,2022-03-29T00:38:17,,,,2019-09-17,,,,,J1772,US,,,,Public,,public,,,,,,,,,,,,,,,,,,,,POINT (-73.686638 41.015065),POINT(-73.686638 41.015065)
CNG,Clean Energy - Greenpoint - National Grid,287 Maspeth Ave,"I-278/Brooklyn Queens Expy, exit onto Vandervoort Ave S, left onto Maspeth Ave, and the station is on the left",Brooklyn,NY,11211,,866-809-4869,E,,Public - Credit card at all times,24 hours daily; call 866-809-4869 for Clean Energy card,CleanEnergy D FuelMan M V Voyager Wright_Exp,,Q,3000 3600,,,,,,,200-8,40.718037,-73.932309,2021-05-06,108,2022-02-10T19:42:29,T,,,2016-07-15,,HD,,,,US,,,,Public - Carte de crédit en tout temps,,public,CREDIT_CARD_ALWAYS,,UTILITY,1,NONE,1200,,,,,,,,,Q,3000 3600,HD,,,POINT (-73.932309 40.718037),POINT(-73.932309 40.718037)
ELEC,Hamilton College,198 College Hill Rd,,Clinton,NY,13323,,866-816-7584,E,,Public,24 hours daily; Also accepts Paypal,A D M V,,,,,18,,,EV Connect,http://evconnect.com/,GPS,43.049748,-75.406056,2020-04-08,154893,2021-03-11T23:22:17,P,,,2019-04-10,,,,,J1772,US,,,,Public,,public,,,COLLEGE_CAMPUS,,,,,,,,,,,,,,,,,POINT (-75.4060556 43.0497485),POINT(-75.406056 43.049748)
ELEC,Eastway Parking,225 W 49th St,Located between Broadway & 8th Ave. - Attendant will assist in charging vehicle.  Parking rates apply. Inquire within.,New York,NY,10019,,888-998-2546,E,,Public,MON: 24 hours | TUE: 24 hours | WED: 24 hours | THU: 24 hours | FRI: 24 hours | SAT: 24 hours | SUN: 24 hours,,,,,,2,,,Blink Network,http://www.blinkcharging.com/,GPS,40.762115,-73.985254,2022-03-29,187765,2022-03-29T02:05:23,,,,2021-04-19,,,,,J1772,US,,,,Public,,public,,,,,,,,,,Level 2: $0.59 per kWh,,,,,,,,,,POINT (-73.98525398 40.76211452),POINT(-73.985254 40.762115)
ELEC,SUNY NEW PALTZ ROUTE 32 (3),80 NY-32,,New Paltz,NY,12561,,888-758-4389,E,,Public,24 hours daily,,,,,,2,,,ChargePoint Network,http://www.chargepoint.com/,GPS,41.738571,-74.079661,2022-03-29,122791,2022-03-29T00:38:17,,,,2019-05-16,,,,,J1772,US,,,,Public,,public,,,,,,,,,,,,,,,,,,,,POINT (-74.079661 41.738571),POINT(-74.079661 41.738571)
ELEC,Quik Park 82nd Street LLC - Tesla Destination,350 E. 82nd St,,New York,NY,10028,,212-352-0514  877-798-3752,E,,Public,24 hours daily; for customer use only; see valet for access,,,,,,3,,,Tesla Destination,https://www.tesla.com/destination-charging,200-9,40.774316,-73.951909,2020-11-03,115108,2021-03-11T23:22:17,P,,,2016-01-01,,,,,J1772 TESLA,US,,,,Public,,public,,,PAY_GARAGE,,,,,,,Free,,,,,,,,,,POINT (-73.951909 40.774316),POINT(-73.951909 40.774316)
ELEC,Fairfield Inn by Marriott Rochester South - Tesla Destination,4695 W Henrietta Rd,,Rochester,NY,14623,,585-334-3350  877-798-3752,E,,Public,24 hours daily; for customer use only; see front desk for access,,,,,,3,,,Tesla Destination,https://www.tesla.com/destination-charging,200-8,43.059322,-77.651957,2020-11-03,115223,2021-03-11T23:22:17,P,,,2018-11-01,,,,,J1772 TESLA,US,,,,Public,,public,,,HOTEL,,,,,,,Free,,,,,,,,,,POINT (-77.651957 43.059322),POINT(-77.651957 43.059322)
ELEC,RRH RIEDMAN CAMP 8,100 Kings Hwy S,,Rochester,NY,14617,,888-758-4389,E,,Public,24 hours daily,,,,,,2,,,ChargePoint Network,http://www.chargepoint.com/,GPS,43.202069,-77.574531,2022-03-29,173962,2022-03-29T00:38:17,,,,2021-01-27,,,,,J1772,US,,,,Public,,public,,,,,,,,,,,,,,,,,,,,POINT (-77.574531 43.202069),POINT(-77.574531 43.202069)
ELEC,WOODLAWN GARAGE WOODLAWN,37 Woodlawn Ave,,Saratoga Springs,NY,12866,,888-758-4389,E,,Public,24 hours daily,,,,,,2,,,ChargePoint Network,http://www.chargepoint.com/,GPS,43.084416,-73.786440,2022-03-29,162164,2022-03-29T00:38:17,,,,2020-06-12,,,,,J1772,US,,,,Public,,public,,,,,,,,,,,,,,,,,,,,POINT (-73.78644 43.084416),POINT(-73.786440 43.084416)
ELEC,PICOTTE 1450 WESTERN 1.,1450 western ave,,Albany,NY,12203,,888-758-4389,E,,Public,24 hours daily,,,,,,2,,,ChargePoint Network,http://www.chargepoint.com/,GPS,42.680122,-73.838684,2022-03-29,175372,2022-03-29T00:38:17,,,,2021-01-27,,,,,J1772,US,,,,Public,,public,,,,,,,,,,,,,,,,,,,,POINT (-73.838684 42.680122),POINT(-73.838684 42.680122)
ELEC,TG EV STATIONS LEFT STATION,35 State Route 299,,Gardiner,NY,12525,,888-758-4389,E,,Public,24 hours daily,,,,,,2,,,ChargePoint Network,http://www.chargepoint.com/,GPS,41.744570,-74.117940,2022-03-29,175242,2022-03-29T00:38:17,,,,2021-01-27,,,,,J1772,US,,,,Public,,public,,,,,,,,,,,,,,,,,,,,POINT (-74.11794 41.74457),POINT(-74.117940 41.744570)
ELEC,Treiber Nissan,320 N Comrie Ave,,Johnstown,NY,12095,,518-736-1300,E,,Public - Call ahead,Dealership business hours,,,,,,1,,,Non-Networked,,200-9,43.025044,-74.358103,2020-06-09,44344,2021-03-11T23:22:17,P,,,2011-11-30,,,,,J1772,US,,,,Public - Appeler à l'avance,,public,CALL,,CAR_DEALER,,,,,,,Free,,,,,,,,,,POINT (-74.358103 43.025044),POINT(-74.358103 43.025044)
ELEC,"SAVARINO COMPAN BRL #1","BRL Covered Lot, single charger 1 South Stree",,Buffalo,NY,14204,,888-758-4389,E,,Public,24 hours daily,,,,,,1,,,ChargePoint Network,http://www.chargepoint.com/,GPS,42.864134,-78.868096,2022-03-29,164159,2022-03-29T00:38:17,,,,2020-07-11,,,,,J1772,US,,,,Public,,public,,,,,,,,,,,,,,,,,,,,POINT (-78.868096 42.864134),POINT(-78.868096 42.864134)
ELEC,Albany Parking Authority,2 Columbia St,,Albany,NY,12207,,213-318-4851,E,,Public,24 hours daily,A D M V,,,,,5,,,EV Connect,http://evconnect.com/,GPS,42.650590,-73.749073,2021-03-15,185449,2021-12-06T18:36:15,P,,,2019-05-02,,,,,J1772,US,,,,Public,,public,,,PARKING_GARAGE,,,,,,,,,,,,,,,,,POINT (-73.7490728 42.6505904),POINT(-73.749073 42.650590)
ELEC,S.A.N.Y. PARKING FOUR,160 School Ln,,Frankfort,NY,13340,,888-758-4389,E,,Public,24 hours daily,,,,,,1,,,ChargePoint Network,http://www.chargepoint.com/,GPS,43.076151,-75.169179,2022-03-29,164389,2022-03-29T00:38:17,,,,2020-07-21,,,,,J1772,US,,,,Public,,public,,,,,,,,,,,,,,,,,,,,POINT (-75.169179 43.076151),POINT(-75.169179 43.076151)
ELEC,The Custer Institute,1115 Main Bayview Rd,,Southold,NY,11971,,888-780-0062,E,,Public,24 hours daily,,,,,,4,,,EV Connect,http://evconnect.com/,GPS,41.052046,-72.434680,2020-04-08,152743,2021-03-11T23:22:17,P,,,2020-01-20,,,,,J1772,US,,,,Public,,public,,,OTHER,,,,,,,,,,,,,,,,,POINT (-72.43468 41.052046),POINT(-72.434680 41.052046)
ELEC,Angelinas Ristorante - Tesla Destination,399 Ellis St,,Staten Island,NY,10307,,877-798-3752  877-798-3752,E,,Public,24 hours daily; for customer use only; see front desk for access,,,,,,3,,,Tesla Destination,https://www.tesla.com/destination-charging,200-9,40.513370,-74.251370,2020-11-03,168580,2021-03-11T23:22:17,P,,,2020-11-03,,,,,TESLA,US,,,,Public,,public,,,,,,,,,,Free,,,,,,,,,,POINT (-74.25137 40.51337),POINT(-74.251370 40.513370)
ELEC,Quikpark 173 W 12th Street - Tesla Destination,173 W 12th St,,New York,NY,10011,,646-336-6225  877-798-3752,E,,Public,24 hours daily; see valet for access,,,,,,3,,,Tesla Destination,https://www.tesla.com/destination-charging,200-8,40.737200,-74.000070,2020-11-03,115032,2021-03-11T23:22:17,P,,,2017-09-01,,,,,J1772 TESLA,US,,,,Public,,public,,,PAY_GARAGE,,,,,,,Free,,,,,,,,,,POINT (-74.00007 40.7372),POINT(-74.000070 40.737200)
ELEC,Standard Parking 1 Metrotech - Tesla Destination,351 Jay St,,Brooklyn,NY,11201,,212-321-7500  877-798-3752,E,,Public,24 hours daily; see valet for access,,,,,,3,,,Tesla Destination,https://www.tesla.com/destination-charging,200-9,40.693216,-73.986716,2020-11-03,114900,2021-03-11T23:22:17,P,,,2018-11-01,,,,,J1772 TESLA,US,,,,Public,,public,,,PAY_GARAGE,,,,,,,Free,,,,,,,,,,POINT (-73.986716 40.693216),POINT(-73.986716 40.693216)
ELEC,BNL South side of Bldg 918,Lawrence Dr,,Upton,NY,11961,,,E,,Public - Credit card at all times,24 hours daily; Drivers must bring their own J1772 cordset for Level 1 charging,A D M V,,,,1,,,,Non-Networked,,GPS,40.872412,-72.878082,2021-02-22,184636,2022-02-10T21:00:18,FG,8.0,U.S. Department of Energy,2021-01-15,,,,,NEMA515,US,,,,Public - Carte de crédit en tout temps,,public,CREDIT_CARD_ALWAYS,DOE,FED_GOV,,,,,,,$4.39 per week,,,,,,,,,,POINT (-72.878082 40.872412),POINT(-72.878082 40.872412)
ELEC,UEM CAR CHARGER CHARGER 1,9 Pruyns Island Dr,,Glens Falls,NY,12801,,888-758-4389,E,,Public,24 hours daily,,,,,,2,,,ChargePoint Network,http://www.chargepoint.com/,GPS,43.296474,-73.644080,2022-03-29,189256,2022-03-29T00:38:17,,,,2021-05-05,,,,,J1772,US,,,,Public,,public,,,,,,,,,,,,,,,,,,,,POINT (-73.64408 43.296474),POINT(-73.644080 43.296474)
ELEC,"BURNS MGT THE SPRINGS #3",60 Weibel Ave,,Saratoga Springs,NY,12866,,888-758-4389,E,,Public,24 hours daily,,,,,,2,,,ChargePoint Network,http://www.chargepoint.com/,GPS,43.093051,-73.743350,2022-03-29,174328,2022-03-29T00:38:17,,,,2021-01-27,,,,,J1772,US,,,,Public,,public,,,,,,,,,,,,,,,,,,,,POINT (-73.74335 43.093051),POINT(-73.743350 43.093051)
ELEC,Marty's True Value,1751 Van Vranken Ave,,Schenectady,NY,12308,,866-816-7584,E,,Public,24 hours daily; Also accepts Paypal,A D M V,,,,,2,,,EV Connect,http://evconnect.com/,GPS,42.825230,-73.923890,2020-04-08,155081,2021-03-11T23:22:17,P,,,2019-04-18,,,,,J1772,US,,,,Public,,public,,,HARDWARE_STORE,,,,,,,,,,,,,,,,,POINT (-73.9238901 42.8252305),POINT(-73.923890 42.825230)
ELEC,APDC ADMIN LOT PORT 1.1,106 Smith Blvd,,Albany,NY,12202,,888-758-4389,E,,Public,24 hours daily,,,,,,2,,,ChargePoint Network,http://www.chargepoint.com/,GPS,42.626225,-73.758180,2022-03-29,181004,2022-03-29T00:38:17,,,,2021-01-27,,,,,J1772,US,,,,Public,,public,,,,,,,,,,,,,,,,,,,,POINT (-73.75818 42.626225),POINT(-73.758180 42.626225)
ELEC,The St. Regis,Two East 55th Street,,New York,NY,10022,,800-663-5633,E,,Public,MO: Not Specified; TU: Not Specified; WE: Not Specified; TH: Not Specified; FR: Not Specified; SA: Not Specified; SU: Not Specified,,,,,,1,,,SemaCharge Network,https://semaconnect.com/,GPS,40.761398,-73.974613,2022-03-29,170181,2022-03-29T00:25:21,,,,2020-12-16,,,,,J1772,US,,,,Public,,public,,,,,,,,,,FREE,,,,,,,,,,POINT (-73.9746128 40.7613979),POINT(-73.974613 40.761398)
ELEC,Hilton Garden Inn - Downtown Ithaca - Tesla Destination,130 E Seneca St,,Ithaca,NY,14850,,607-277-8900  877-798-3752,E,,Public - Call ahead,24 hours daily; for customer use only,,,,,,2,,,Tesla Destination,https://www.tesla.com/destination-charging,200-9,42.440673,-76.497375,2020-11-03,114958,2021-03-11T23:22:17,P,,,2018-11-01,,,,,TESLA,US,,,,Public - Appeler à l'avance,,public,CALL,,HOTEL,,,,,,,Free,,,,,,,,,,POINT (-76.497375 42.440673),POINT(-76.497375 42.440673)
ELEC,Saint George Courthouse,54 Central Ave,,Staten Island,NY,10301,,718-524-1190  866-816-7584,E,,Public,24 hours daily,,,,,,5,,,EV Connect,http://evconnect.com/,200-9,40.639470,-74.076912,2020-04-08,65296,2021-03-11T23:22:17,LG,,,2016-08-08,,,,,J1772,US,,,,Public,,public,,,PARKING_LOT,,,,,,,,,,,,,,,,,POINT (-74.076912 40.63947),POINT(-74.076912 40.639470)
ELEC,MUNICIPAL EVSE EASTFIELD PARK,175 Dix Ave,,Glens Falls,NY,12801,,888-758-4389,E,,Public,24 hours daily,,,,,,2,,,ChargePoint Network,http://www.chargepoint.com/,GPS,43.317240,-73.627280,2022-03-29,155244,2022-03-29T00:38:17,,,,2020-04-08,,,,,J1772,US,,,,Public,,public,,,,,,,,,,,,,,,,,,,,POINT (-73.62728 43.31724),POINT(-73.627280 43.317240)
ELEC,Standard Parking 270 Greenwich - Tesla Destination,270 Greenwich St,,New York,NY,10007,,800-836-6666  877-798-3752,E,,Public,24 hours daily; pay lot; see valet for access,,,,,,3,,,Tesla Destination,https://www.tesla.com/destination-charging,200-9,40.715543,-74.011435,2020-11-03,115076,2021-03-11T23:22:17,P,,,2018-11-01,,,,,J1772 TESLA,US,,,,Public,,public,,,PAY_GARAGE,,,,,,,Free,,,,,,,,,,POINT (-74.011435 40.715543),POINT(-74.011435 40.715543)
ELEC,PICOTTE 1450 WESTERN 2,1450 western ave,,Albany,NY,12203,,888-758-4389,E,,Public,24 hours daily,,,,,,2,,,ChargePoint Network,http://www.chargepoint.com/,GPS,42.680160,-73.838680,2022-03-29,154452,2022-03-29T00:38:17,,,,2020-03-13,,,,,J1772,US,,,,Public,,public,,,,,,,,,,,,,,,,,,,,POINT (-73.83868 42.68016),POINT(-73.838680 42.680160)
ELEC,Village of Canastota,205 S Peterboro St,,Canastota,NY,13032,,315-697-7559,E,,Public,24 hours daily,,,,,,2,,,Non-Networked,,GPS,43.077499,-75.752256,2021-05-06,187159,2022-02-10T19:42:29,P,,,2021-03-22,,,,,J1772,US,,,,Public,,public,,,PARKING_LOT,,,,,,,,,,,,,,,,,POINT (-75.752256 43.077499),POINT(-75.752256 43.077499)
ELEC,5 FARRELL ROAD VIC EVSE2,3743 Main St,,Willsboro,NY,12996,,888-758-4389,E,,Public,24 hours daily,,,,,,2,,,ChargePoint Network,http://www.chargepoint.com/,GPS,44.361485,-73.391304,2022-03-29,193247,2022-03-29T00:38:17,,,,2021-07-28,,,,,J1772,US,,,,Public,,public,,,,,,,,,,,,,,,,,,,,POINT (-73.391304 44.361485),POINT(-73.391304 44.361485)
ELEC,City Parking E 61st Street - Tesla Destination,425 E 61st St,,New York,NY,10065,,212-219-3413  877-798-3752,E,,Public,24 hours daily; see valet for access,,,,,,3,,,Tesla Destination,https://www.tesla.com/destination-charging,200-9,40.760522,-73.959278,2020-11-03,115135,2021-03-11T23:22:17,P,,,2017-09-01,,,,,J1772 TESLA,US,,,,Public,,public,,,PAY_GARAGE,,,,,,,Free,,,,,,,,,,POINT (-73.959278 40.760522),POINT(-73.959278 40.760522)
ELEC,iPark NYC 75 Wall Street - Tesla Destination,75 Wall St,,New York,NY,10005,,855-472-7569  877-798-3752,E,,Public,24 hours daily; for customer use only; see valet for access,,,,,,3,,,Tesla Destination,https://www.tesla.com/destination-charging,200-9,40.705042,-74.008118,2020-11-03,122491,2021-03-11T23:22:17,P,,,2019-03-01,,,,,J1772 TESLA,US,,,,Public,,public,,,,,,,,,,Free,,,,,,,,,,POINT (-74.008118 40.705042),POINT(-74.008118 40.705042)
ELEC,ATRIUM EVCHARGE PRC-EV1,634 Plank Rd,,Clifton Park,NY,12065,,888-758-4389,E,,Public,24 hours daily,,,,,,2,,,ChargePoint Network,http://www.chargepoint.com/,GPS,42.866741,-73.777990,2022-03-29,174928,2022-03-29T00:38:17,,,,2021-01-27,,,,,J1772,US,,,,Public,,public,,,,,,,,,,,,,,,,,,,,POINT (-73.77799 42.866741),POINT(-73.777990 42.866741)
ELEC,CITY HALL 12534 CITY HALL 3,542 Warren St,,Hudson,NY,12534,,888-758-4389,E,,Public,24 hours daily,,,,,,2,,,ChargePoint Network,http://www.chargepoint.com/,GPS,42.249016,-73.784650,2022-03-29,149513,2022-03-29T00:38:17,,,,2019-11-26,,,,,J1772,US,,,,Public,,public,,,,,,,,,,,,,,,,,,,,POINT (-73.78465 42.249016),POINT(-73.784650 42.249016)
ELEC,TSS ALBANY STATIONS 1 & 2,2 Commerce Park Dr,,Schenectady,NY,12309,,888-758-4389,E,,Public,24 hours daily,,,,,,2,,,ChargePoint Network,http://www.chargepoint.com/,GPS,42.832880,-73.903920,2022-03-29,183223,2022-03-29T00:38:17,,,,2021-01-27,,,,,J1772,US,,,,Public,,public,,,,,,,,,,,,,,,,,,,,POINT (-73.90392 42.83288),POINT(-73.903920 42.832880)
ELEC,854ELLICOTT 589 ELLICOTT 6,589 Ellicott St,,Buffalo,NY,14203,,888-758-4389,E,,Public,24 hours daily,,,,,,2,,,ChargePoint Network,http://www.chargepoint.com/,GPS,42.895761,-78.868331,2022-03-29,181837,2022-03-29T00:38:17,,,,2021-01-27,,,,,J1772,US,,,,Public,,public,,,,,,,,,,,,,,,,,,,,POINT (-78.868331 42.895761),POINT(-78.868331 42.895761)
ELEC,ADAMS STATION 708 CATLYN CT,708 Catlyn Ct,,Delmar,NY,12054,,888-758-4389,E,,Public,24 hours daily,,,,,,2,,,ChargePoint Network,http://www.chargepoint.com/,GPS,42.606503,-73.848000,2022-03-29,165392,2022-03-29T00:38:17,,,,2020-08-22,,,,,J1772,US,,,,Public,,public,,,,,,,,,,,,,,,,,,,,POINT (-73.848 42.606503),POINT(-73.848000 42.606503)
ELEC,VISITORS TOWN OF CLAY,4401 NY-31,,Clay,NY,13041,,888-758-4389,E,,Public,24 hours daily,,,,,,2,,,ChargePoint Network,http://www.chargepoint.com/,GPS,43.187020,-76.208299,2022-03-29,162291,2022-03-29T00:38:17,,,,2020-06-12,,,,,J1772,US,,,,Public,,public,,,,,,,,,,,,,,,,,,,,POINT (-76.208299 43.18702),POINT(-76.208299 43.187020)
LPG,U-Haul,2560 South Rd,,Poughkeepsie,NY,12601,,845-462-1027,E,,Public,"7am-7pm M-Th and Sat, 7am-8pm F, 9am-5pm Sun",A Cash Checks D M V,,,,,,,,,,200-9,41.663631,-73.928773,2021-06-07,53161,2022-02-22T14:31:10,P,,,2013-10-16,,,false,,,US,,,,Public,,public,,,RENTAL_CAR_RETURN,,,,,,,,,"QUICK_CONNECT"", ""ACME",,,,,,,,POINT (-73.928773 41.663631),POINT(-73.928773 41.663631)
ELEC,HAMPTON INN STATION 4,1120 South Ave,,Staten Island,NY,10314,,888-758-4389,E,,Public,24 hours daily,,,,,,2,,,ChargePoint Network,http://www.chargepoint.com/,GPS,40.612678,-74.178885,2022-03-29,181661,2022-03-29T00:38:17,,,,2021-01-27,,,,,J1772,US,,,,Public,,public,,,,,,,,,,,,,,,,,,,,POINT (-74.178885 40.612678),POINT(-74.178885 40.612678)
ELEC,Angelina's Ristorante - Tesla Destination,399 Ellis St,,Staten Island,NY,10307,,718-227-2900  877-798-3752,E,,Public,24 hours daily; see front desk for access,,,,,,3,,,Tesla Destination,https://www.tesla.com/destination-charging,200-9,40.513370,-74.251370,2020-11-03,115240,2021-03-11T23:22:17,P,,,2018-11-01,,,,,TESLA,US,,,,Public,,public,,,RESTAURANT,,,,,,,Free,,,,,,,,,,POINT (-74.25137 40.51337),POINT(-74.251370 40.513370)
ELEC,Village of Montour Falls,300 W Main St,Behind Main Street Park,Montour Falls,NY,14865,,607-535-7367  866-816-7584,E,,Public,24 hours daily,,,,,,2,,,EV Connect,http://evconnect.com/,GPS,42.346621,-76.848004,2020-06-09,121285,2021-03-11T23:22:17,LG,,,2018-04-01,,,,,J1772,US,,,,Public,,public,,,PARKING_LOT,,,,,,,$0.15 per kWh,,,,,,,,,,POINT (-76.848004 42.346621),POINT(-76.848004 42.346621)
ELEC,WCS NS1 SOUTHERN,2300 Southern Blvd,,Bronx,NY,10460,,888-758-4389,E,,Public,24 hours daily,,,,,,2,,,ChargePoint Network,http://www.chargepoint.com/,GPS,40.850625,-73.881132,2022-03-29,162156,2022-03-29T00:38:17,,,,2020-06-12,,,,,J1772,US,,,,Public,,public,,,,,,,,,,,,,,,,,,,,POINT (-73.881132 40.850625),POINT(-73.881132 40.850625)
ELEC,EPLLC ELECTRONICS 1,497 Electronics Pkwy,,Liverpool,NY,13088,,888-758-4389,E,,Public,24 hours daily,,,,,,2,,,ChargePoint Network,http://www.chargepoint.com/,GPS,43.106861,-76.184909,2022-03-29,174520,2022-03-29T00:38:17,,,,2021-01-27,,,,,J1772,US,,,,Public,,public,,,,,,,,,,,,,,,,,,,,POINT (-76.184909 43.106861),POINT(-76.184909 43.106861)
ELEC,Meier's Creek Brewing Co,33 Rippleton Rd,Located in the parking lot,Cazenovia,NY,13035,,315-815-4022,E,,Public,24 hours daily,,,,,,3,,,Non-Networked,,200-9,42.919517,-75.866050,2021-07-14,79175,2022-02-10T19:42:29,P,,,2016-07-01,,,,,J1772,US,,,,Public,,public,,,BREWERY_DISTILLERY_WINERY,,,,,,,Free,,,,,,,,,,POINT (-75.86605 42.919517),POINT(-75.866050 42.919517)
ELEC,Art Delta New York,25-20 Brooklyn Queens Expy,,Woodside,NY,11377,,866-816-7584,E,,Public,Office business hours; for employee and guest use only,,,,,,2,,,EV Connect,http://evconnect.com/,GPS,40.763053,-73.902931,2020-06-09,94869,2021-03-11T23:22:17,P,,,2016-06-29,,,,,J1772,US,,,,Public,,public,,,OFFICE_BLDG,,,,,,,,,,,,,,,,,POINT (-73.902931 40.763053),POINT(-73.902931 40.763053)
ELEC,Best Western Plus Victor Inn & Suites,7449 NY-96,Front Parking,Victor,NY,14564,,888-998-2546,E,,Public,MON: 24 hours | TUE: 24 hours | WED: 24 hours | THU: 24 hours | FRI: 24 hours | SAT: 24 hours | SUN: 24 hours,,,,,,4,,,Blink Network,http://www.blinkcharging.com/,GPS,43.005833,-77.444589,2022-03-29,197044,2022-03-29T02:05:23,,,,2021-10-01,,,,,J1772,US,,,,Public,,public,,,,,,,,,,Level 2: $0.69 per kWh,,,,,,,,,,POINT (-77.444589 43.005833),POINT(-77.444589 43.005833)
ELEC,3050 Corlear Ave - Nagle Parking Inc. - Tesla Destination,3050 Corlear Ave,,Bronx,NY,10463,,718-708-5077  877-798-3752,E,,Public,24 hours daily; pay lot; see valet for access,,,,,,4,,,Tesla Destination,https://www.tesla.com/destination-charging,200-9,40.879900,-73.907762,2020-11-03,150624,2021-03-11T23:22:17,P,,,2019-09-30,,,,,TESLA,US,,,,Public,,public,,,,,,,,,,Free,,,,,,,,,,POINT (-73.907762 40.8799),POINT(-73.907762 40.879900)
ELEC,LAFAYETTE BOYNT LAF BOYNT 1,901 Boynton Ave,,Bronx,NY,10473,,888-758-4389,E,,Public,24 hours daily,,,,,,2,,,ChargePoint Network,http://www.chargepoint.com/,GPS,40.821451,-73.877642,2022-03-29,162499,2022-03-29T00:38:17,,,,2020-06-12,,,,,J1772,US,,,,Public,,public,,,,,,,,,,,,,,,,,,,,POINT (-73.877642 40.821451),POINT(-73.877642 40.821451)
ELEC,SKICENTER EVSE2,1562 Osceola Rd,,Camden,NY,13316,,888-758-4389,E,,Public,24 hours daily,,,,,,2,,,ChargePoint Network,http://www.chargepoint.com/,GPS,43.504623,-75.700510,2022-03-29,197701,2022-03-29T00:38:17,,,,2021-10-14,,,,,J1772,US,,,,Public,,public,,,,,,,,,,,,,,,,,,,,POINT (-75.70051 43.504623),POINT(-75.700510 43.504623)
ELEC,STEINSCHINDER 8W MAIN ST,8 W Main St,,Hastings-on-Hudson,NY,10706,,888-758-4389,E,,Public,24 hours daily,,,,,,2,,,ChargePoint Network,http://www.chargepoint.com/,GPS,40.994445,-73.882657,2022-03-29,192753,2022-03-29T00:38:17,,,,2021-07-13,,,,,J1772,US,,,,Public,,public,,,,,,,,,,,,,,,,,,,,POINT (-73.882657 40.994445),POINT(-73.882657 40.994445)
ELEC,Hamlet,56 Marion Ave,,Saratoga Springs,NY,12866,,518-691-3119,E,,Public,24 hours daily,,,,,,4,,,LIVINGSTON,https://www.solution.energy/evse/,GPS,43.090647,-73.772099,2021-06-07,189519,2022-02-10T19:42:29,P,,,2020-07-30,,,,,J1772,US,,,,Public,,public,,,MULTI_UNIT_DWELLING,,,,,,,,,,,,,,,,NONE,POINT (-73.772099 43.090647),POINT(-73.772099 43.090647)
ELEC,Winter Creek,1 Winter Creek Blvd,,Latham,NY,12110,,518-691-3119,E,,Public,24 hours daily,,,,,,6,,,LIVINGSTON,https://www.solution.energy/evse/,GPS,42.731056,-73.763083,2021-06-07,189541,2022-02-10T19:42:29,P,,,2020-08-19,,,,,J1772,US,,,,Public,,public,,,MULTI_UNIT_DWELLING,,,,,,,,,,,,,,,,NONE,POINT (-73.763083 42.731056),POINT(-73.763083 42.731056)
ELEC,TOWN OF BOLTON TOWN OF BOLTON2,5 Cross Street Town of Bolton,,Bolton Landing,NY,12814,,888-758-4389,E,,Public,24 hours daily,,,,,,2,,,ChargePoint Network,http://www.chargepoint.com/,GPS,43.557552,-73.657861,2022-03-29,212600,2022-03-29T00:38:17,,,,2022-03-24,,,,,J1772,US,,,,Public,,public,,,,,,,,,,,,,,,,,,,,POINT (-73.657861 43.557552),POINT(-73.657861 43.557552)
ELEC,GREECE TOWN HAL GREECE SOUTH 2,1 Vince Tofany Blvd,,Rochester,NY,14612,,888-758-4389,E,,Public,24 hours daily,,,,,,2,,,ChargePoint Network,http://www.chargepoint.com/,GPS,43.258197,-77.699130,2022-03-29,180741,2022-03-29T00:38:17,,,,2021-01-27,,,,,J1772,US,,,,Public,,public,,,,,,,,,,,,,,,,,,,,POINT (-77.69913 43.258197),POINT(-77.699130 43.258197)
ELEC,BEDFORDEV METRO NORTH RR1,11 Railroad Ave,,Bedford Hills,NY,10507,,888-758-4389,E,,Public,24 hours daily,,,,,,2,,,ChargePoint Network,http://www.chargepoint.com/,GPS,41.237361,-73.700105,2022-03-29,162335,2022-03-29T00:38:17,,,,2020-06-12,,,,,J1772,US,,,,Public,,public,,,,,,,,,,,,,,,,,,,,POINT (-73.700105 41.237361),POINT(-73.700105 41.237361)
ELEC,OMG EV CHARGER EVCHARGER3,656 Co Hwy 33,,Cooperstown,NY,13326,,888-758-4389,E,,Public,24 hours daily,,,,,,2,,,ChargePoint Network,http://www.chargepoint.com/,GPS,42.626144,-74.945076,2022-03-29,203019,2022-03-29T00:38:17,,,,2021-12-24,,,,,J1772,US,,,,Public,,public,,,,,,,,,,,,,,,,,,,,POINT (-74.945076 42.626144),POINT(-74.945076 42.626144)
ELEC,BURNS MGT HV 1,102 Bleeker Rd,,Guilderland,NY,12084,,888-758-4389,E,,Public,24 hours daily,,,,,,2,,,ChargePoint Network,http://www.chargepoint.com/,GPS,42.690931,-73.887646,2022-03-29,173886,2022-03-29T00:38:17,,,,2021-01-27,,,,,J1772,US,,,,Public,,public,,,,,,,,,,,,,,,,,,,,POINT (-73.887646 42.690931),POINT(-73.887646 42.690931)
ELEC,Greenville Center,855 Central Park Ave,,Scarsdale,NY,10583,,877-455-3833,E,,Public,24 hours daily,,,,,,,1,,eVgo Network,https://www.evgo.com/,GPS,40.995411,-73.819055,2022-03-29,198299,2022-03-29T04:29:06,,,,2021-10-25,,,,,CHADEMO J1772COMBO,US,,,,Public,,public,,,,,,,,,,,,,,,,,,,,POINT (-73.819055 40.995411),POINT(-73.819055 40.995411)
ELEC,B & C Auto Service,725 Route 6,,Mahopac,NY,10541,,866-816-7584,E,,Public - Credit card at all times,24 hours daily; Also accepts Paypal,A D M V,,,,,2,,,EV Connect,http://evconnect.com/,200-9,41.375328,-73.726893,2020-10-09,166305,2021-03-11T23:22:17,P,,,2020-06-23,,,,,J1772,US,,,,Public - Carte de crédit en tout temps,,public,CREDIT_CARD_ALWAYS,,AUTO_REPAIR,,,,,,,,,,,,,,,,,POINT (-73.726893 41.375328),POINT(-73.726893 41.375328)
ELEC,TOWN GERMANTOWN MUNICIPAL LOT,189 Main St,,Germantown,NY,12526,,888-758-4389,E,,Public,24 hours daily,,,,,,2,,,ChargePoint Network,http://www.chargepoint.com/,GPS,42.132595,-73.882650,2022-03-29,149273,2022-03-29T00:38:17,,,,2019-11-20,,,,,J1772,US,,,,Public,,public,,,,,,,,,,,,,,,,,,,,POINT (-73.88265 42.132595),POINT(-73.882650 42.132595)
ELEC,OLD STONEHOUSE GUEST PARKING,21 Hathorn Rd,,Warwick,NY,10990,,888-758-4389,E,,Public,Thu 4:30pm - 11:00pm; Fri 12:00pm - 12:00am; Sat 12:00pm - 12:00am; Sun 7:00am - 9:00pm,,,,,,2,,,ChargePoint Network,http://www.chargepoint.com/,GPS,41.245842,-74.370384,2022-03-29,193536,2022-03-29T00:38:17,,,,2021-08-06,,,,,J1772,US,,,,Public,,public,,,,,,,,,,,,,,,,,,,,POINT (-74.370384 41.245842),POINT(-74.370384 41.245842)
ELEC,Holiday Inn Utica,1777 Burnstone Rd,,New Hartford,NY,13143,,866-816-7584,E,,Public - Credit card at all times,24 hours daily,A D Debit M V,,,,,2,,,EV Connect,http://evconnect.com/,GPS,43.094117,-75.284857,2021-11-04,195713,2021-12-06T18:36:15,P,,,2021-09-03,,,,,J1772,US,,,,Public - Carte de crédit en tout temps,,public,CREDIT_CARD_ALWAYS,,HOTEL,,,,,,,,,,,,,,,,,POINT (-75.2848574246851 43.0941174896859),POINT(-75.284857 43.094117)
ELEC,PANYNJ LGA WEST 1,LGA West Garage LaGuardia Airport,,Flushing,NY,11371,,888-758-4389,E,,Public,24 hours daily,,,,,,1,,,ChargePoint Network,http://www.chargepoint.com/,GPS,40.773116,-73.874977,2022-03-29,162285,2022-03-29T00:38:17,,,,2020-06-12,,,,,J1772,US,,,,Public,,public,,,,,,,,,,,,,,,,,,,,POINT (-73.874977 40.773116),POINT(-73.874977 40.773116)
ELEC,5TH AVE 5TH AVE TROY,1713 5th Ave,,Troy,NY,12180,,888-758-4389,E,,Public,24 hours daily,,,,,,2,,,ChargePoint Network,http://www.chargepoint.com/,GPS,42.730522,-73.688060,2022-03-29,162308,2022-03-29T00:38:17,,,,2020-06-12,,,,,J1772,US,,,,Public,,public,,,,,,,,,,,,,,,,,,,,POINT (-73.68806 42.730522),POINT(-73.688060 42.730522)
ELEC,Green Acres Commons - Tesla Supercharger,"2034 Green Acres Mall, Sunrise Highway",,Valley Stream,NY,11581,,877-798-3752,E,,Public,24 hours daily; for Tesla use only,,,,,,,16,,Tesla,https://www.tesla.com/supercharger,200-9,40.664127,-73.725100,2021-10-11,102344,2021-11-04T18:37:47,P,,,2018-07-23,,,,,TESLA,US,,,,Public,,public,,,,,,,,,,$0.28 per kWh; $0.26 per minute above 60 kW and $0.13 per minute at or below 60 kW,,,,,,,,,,POINT (-73.7251 40.664127),POINT(-73.725100 40.664127)
ELEC,Icon Parking - One Lincoln Plaza,20 W 64th Street,Located at B1,New York,NY,10023,,888-998-2546,E,,Public,MON: 24 hours | TUE: 24 hours | WED: 24 hours | THU: 24 hours | FRI: 24 hours | SAT: 24 hours | SUN: 24 hours,,,,,,1,,,Blink Network,http://www.blinkcharging.com/,GPS,40.771626,-73.981032,2022-03-29,164681,2022-03-29T02:05:23,,,,2020-08-01,,,,,J1772,US,,,,Public,,public,,,,,,,,,,Level 2: $0.59 per kWh,,,,,,,,,,POINT (-73.981032 40.771626),POINT(-73.981032 40.771626)
ELEC,PRIMA LOFTS LL ALB LOFTS 1.1,1373 Broadway,,Menands,NY,12204,,888-758-4389,E,,Public,24 hours daily,,,,,,2,,,ChargePoint Network,http://www.chargepoint.com/,GPS,42.676205,-73.733440,2022-03-29,175102,2022-03-29T00:38:17,,,,2021-01-27,,,,,J1772,US,,,,Public,,public,,,,,,,,,,,,,,,,,,,,POINT (-73.73344 42.676205),POINT(-73.733440 42.676205)
ELEC,SLSDC - Administration Building,180 Andrews St,,Massena,NY,13662,,,E,,Public,24 hours daily; Drivers must bring their own J1772 cordset for Level 1 charging,,,,,1,,,,Non-Networked,,GPS,44.929771,-74.902773,2021-02-22,184631,2022-02-10T21:00:18,FG,17.0,Department of Transportation,2021-01-15,,,,,NEMA515,US,,,,Public,,public,,DOT,FED_GOV,,,,,,,Free,,,,,,,,,,POINT (-74.902773 44.929771),POINT(-74.902773 44.929771)
ELEC,ImPark Underhill Garage - Tesla Destination,105 Underhill Ave,,Brooklyn,NY,11238,,877-909-6199  877-798-3752,E,,Public,24 hours daily; pay lot; see front desk for access,,,,,,4,,,Tesla Destination,https://www.tesla.com/destination-charging,200-9,40.677460,-73.965421,2020-11-03,122469,2021-03-11T23:22:17,P,,,2019-03-01,,,,,TESLA,US,,,,Public,,public,,,,,,,,,,Free,,,,,,,,,,POINT (-73.965421 40.67746),POINT(-73.965421 40.677460)
ELEC,Icon Parking 515 E 72nd Street - Tesla Destination,515  E 72nd St,,New York,NY,10021,,212-249-8196  877-798-3752,E,,Public,24 hours daily; pay lot; see valet for access,,,,,,3,,,Tesla Destination,https://www.tesla.com/destination-charging,200-9,40.766857,-73.952647,2020-11-03,150660,2021-03-11T23:22:17,P,,,2019-09-30,,,,,J1772 TESLA,US,,,,Public,,public,,,,,,,,,,Free,,,,,,,,,,POINT (-73.952647 40.766857),POINT(-73.952647 40.766857)
ELEC,Staples Plaza,3379 Crompond Rd,,Yorktown Heights,NY,10598,,877-455-3833,E,,Public,24 hours daily,,,,,,,1,,eVgo Network,https://www.evgo.com/,GPS,41.289986,-73.830730,2022-03-29,198867,2022-03-29T04:29:06,,,,2021-10-25,,,,,CHADEMO J1772COMBO,US,,,,Public,,public,,,,,,,,,,,,,,,,,,,,POINT (-73.83073 41.289986),POINT(-73.830730 41.289986)
ELEC,SAVARINO COMPAN BRL 6,BRL Parking Lot 4th from building 1 South Str,,Buffalo,NY,14204,,888-758-4389,E,,Public,24 hours daily,,,,,,2,,,ChargePoint Network,http://www.chargepoint.com/,GPS,42.863679,-78.868118,2022-03-29,164153,2022-03-29T00:38:17,,,,2020-07-11,,,,,J1772,US,,,,Public,,public,,,,,,,,,,,,,,,,,,,,POINT (-78.868118 42.863679),POINT(-78.868118 42.863679)
ELEC,The Shops at Riverhead,1762 Old Country Rd,,Riverhead,NY,11901,,877-455-3833,E,,Public,24 hours daily,,,,,,,2,,eVgo Network,https://www.evgo.com/,GPS,40.927889,-72.706158,2022-03-29,199014,2022-03-29T04:29:06,,,,2021-10-25,,,,,CHADEMO J1772COMBO,US,,,,Public,,public,,,,,,,,,,,,,,,,,,,,POINT (-72.706158 40.927889),POINT(-72.706158 40.927889)
ELEC,NORTHLAND 1,683 Northland Ave,,Buffalo,NY,14211,,888-758-4389,E,,Public,24 hours daily,,,,,,2,,,ChargePoint Network,http://www.chargepoint.com/,GPS,42.917820,-78.834370,2022-03-29,180126,2022-03-29T00:38:17,,,,2021-01-27,,,,,J1772,US,,,,Public,,public,,,,,,,,,,,,,,,,,,,,POINT (-78.83437 42.91782),POINT(-78.834370 42.917820)
CNG,Con Edison - Rye Service Center,178 Theodore Fremd Ave,"I-95/New England Thruway, exit 19 onto Playland Pkwy Service Rd going south, left onto Theodore Fremd Ave, station on left.",Rye,NY,10580,,914-933-2910,E,,Public - Card key at all times,8am-8pm M-F; call 718-204-4048 to arrange for card key,,,Q,3600,,,,,,,200-9,40.979001,-73.693048,2021-09-10,130,2022-02-10T19:42:29,T,,,1996-12-03,,MD,,,,US,,,,Public - Carte-clé en tout temps,,public,KEY_ALWAYS,,UTILITY,1,,60,,,,,,,,,Q,3600,MD,,,POINT (-73.693048 40.979001),POINT(-73.693048 40.979001)
ELEC,DEMCO TRUHILTONCHARGE,3512 NY-434,,Vestal,NY,13850,,888-758-4389,E,,Public,24 hours daily,,,,,,2,,,ChargePoint Network,http://www.chargepoint.com/,GPS,42.096362,-75.987614,2022-03-29,169881,2022-03-29T00:38:17,,,,2020-12-03,,,,,J1772,US,,,,Public,,public,,,,,,,,,,,,,,,,,,,,POINT (-75.987614 42.096362),POINT(-75.987614 42.096362)
ELEC,SUNY NEW PALTZ STATION 2,Service building,,New Paltz,NY,12561,,888-758-4389,E,,Public,24 hours daily,,,,,,2,,,ChargePoint Network,http://www.chargepoint.com/,GPS,41.736732,-74.084307,2022-03-29,123392,2022-03-29T00:38:17,,,,2019-05-29,,,,,J1772,US,,,,Public,,public,,,,,,,,,,,,,,,,,,,,POINT (-74.084307 41.736732),POINT(-74.084307 41.736732)
ELEC,Oerlikon Metco,1101 Prospect Ave,,Westbury,NY,11590,,866-816-7584,E,,Public,24 hours daily; Also accepts Paypal,A D M V,,,,,2,,,EV Connect,http://evconnect.com/,GPS,40.764764,-73.554076,2020-04-08,155101,2021-03-11T23:22:17,P,,,2019-04-29,,,,,J1772,US,,,,Public,,public,,,OFFICE_BLDG,,,,,,,,,,,,,,,,,POINT (-73.5540755 40.7647643),POINT(-73.554076 40.764764)
ELEC,GMC 111 E 82nd St - Tesla Destination,111 E 82nd St,,New York,NY,10065,,212-288-9645  877-798-3752,E,,Public,24 hours daily; see valet for access,,,,,,3,,,Tesla Destination,https://www.tesla.com/destination-charging,200-8,40.777545,-73.958471,2020-11-03,115000,2021-03-11T23:22:17,P,,,2016-12-15,,,,,J1772 TESLA,US,,,,Public,,public,,,PAY_GARAGE,,,,,,,Free,,,,,,,,,,POINT (-73.958471 40.777545),POINT(-73.958471 40.777545)
ELEC,Henderson Ford,810 E Ridge Rd,Located in front of and on the west side of the building,Webster,NY,14580,,585-787-1700,E,,Public - Call ahead,Dealership business hours,,,,,,2,,,Non-Networked,,200-9,43.205714,-77.476722,2021-06-07,53975,2022-02-10T19:42:29,P,,,2013-09-01,,,,,J1772,US,,,,Public - Appeler à l'avance,,public,CALL,,CAR_DEALER,,,,,,,Free,,,,,,,,,,POINT (-77.476722 43.205714),POINT(-77.476722 43.205714)
ELEC,ROCHESTER NY EAST END -GW 2,475 East Ave,,Rochester,NY,14604,,888-758-4389,E,,Public,24 hours daily,,,,,,2,,,ChargePoint Network,http://www.chargepoint.com/,GPS,43.157074,-77.599958,2022-03-29,181473,2022-03-29T00:38:17,,,,2021-01-27,,,,,J1772,US,,,,Public,,public,,,,,,,,,,,,,,,,,,,,POINT (-77.599958 43.157074),POINT(-77.599958 43.157074)
ELEC,Mather Hospital,75 North County Rd,,Port Jefferson,NY,11777,,866-816-7584,E,,Public,24 hours daily,,,,,,4,,,EV Connect,http://evconnect.com/,GPS,40.939610,-73.053579,2021-03-15,185627,2021-12-06T18:36:15,P,,,2021-03-01,,,,,J1772,US,,,,Public,,public,,,HOSPITAL,,,,,,,,,,,,,,,,,POINT (-73.053579 40.93961),POINT(-73.053579 40.939610)
ELEC,Town of Dickinson,531 Old Front St,,Binghamton,NY,13905,,866-816-7584,E,,Public,24 hours daily,,,,,,2,,,EV Connect,http://evconnect.com/,200-9,42.119780,-75.912473,2020-04-08,94828,2021-03-11T23:22:17,LG,,,2017-07-12,,,,,J1772,US,,,,Public,,public,,,MUNI_GOV,,,,,,,,,,,,,,,,,POINT (-75.912473 42.11978),POINT(-75.912473 42.119780)
ELEC,TOWN OF BOLTON TOWN OF BOLTON1,5 Cross Street Town of Bolton,,Bolton Landing,NY,12814,,888-758-4389,E,,Public,24 hours daily,,,,,,2,,,ChargePoint Network,http://www.chargepoint.com/,GPS,43.557602,-73.657839,2022-03-29,165304,2022-03-29T00:38:17,,,,2020-08-19,,,,,J1772,US,,,,Public,,public,,,,,,,,,,,,,,,,,,,,POINT (-73.657839 43.557602),POINT(-73.657839 43.557602)
ELEC,SWL SARANAC 1.1,234 Lake Flower Ave,,Saranac Lake,NY,12983,,888-758-4389,E,,Public,24 hours daily,,,,,,2,,,ChargePoint Network,http://www.chargepoint.com/,GPS,44.322773,-74.123146,2022-03-29,181789,2022-03-29T00:38:17,,,,2021-01-27,,,,,J1772,US,,,,Public,,public,,,,,,,,,,,,,,,,,,,,POINT (-74.123146 44.322773),POINT(-74.123146 44.322773)
ELEC,TH 001,1 Town Hall Rd,,Lake Katrine,NY,12449,,888-758-4389,E,,Public,24 hours daily,,,,,,2,,,ChargePoint Network,http://www.chargepoint.com/,GPS,41.976902,-74.002655,2022-03-29,206836,2022-03-29T00:38:17,,,,2022-02-22,,,,,J1772,US,,,,Public,,public,,,,,,,,,,,,,,,,,,,,POINT (-74.002655 41.976902),POINT(-74.002655 41.976902)
ELEC,EV Charge Solutions - Headquarters,7464 W Henrietta Rd,,Rush,NY,14543,,585-533-4051,E,,Public,24 hours daily,,,,,,4,,,Non-Networked,,200-9,42.996895,-77.667425,2020-03-03,154200,2021-03-11T23:22:17,P,,,2018-05-01,,,,,J1772,US,,,,Public,,public,,,OFFICE_BLDG,,,,,,,Free,,,,,,,,,,POINT (-77.667425 42.996895),POINT(-77.667425 42.996895)
ELEC,Comfort Inn - Tesla Destination,66 W Pulteney St,,Corning,NY,14830,,607-962-1515  877-798-3752,E,,Public,24 hours daily; for customer use only; see front desk for access,,,,,,3,,,Tesla Destination,https://www.tesla.com/destination-charging,200-9,42.150849,-77.064055,2019-09-30,114927,2021-03-11T23:22:17,P,,,2018-11-01,,,,,J1772 TESLA,US,,,,Public,,public,,,HOTEL,,,,,,,Free,,,,,,,,,,POINT (-77.064055 42.150849),POINT(-77.064055 42.150849)
ELEC,BURNS MGT OXFORD 1,6211 Johnston Rd,,Albany,NY,12203,,888-758-4389,E,,Public,24 hours daily,,,,,,2,,,ChargePoint Network,http://www.chargepoint.com/,GPS,42.684760,-73.868251,2022-03-29,162126,2022-03-29T00:38:17,,,,2020-06-12,,,,,J1772,US,,,,Public,,public,,,,,,,,,,,,,,,,,,,,POINT (-73.868251 42.68476),POINT(-73.868251 42.684760)
ELEC,CASE CENTER LOT PALAMOUNTAIN,Perimeter Rd,,Saratoga Springs,NY,12866,,888-758-4389,E,,Public,24 hours daily,,,,,,2,,,ChargePoint Network,http://www.chargepoint.com/,GPS,43.098201,-73.783743,2022-03-29,123549,2022-03-29T00:38:17,,,,2019-06-05,,,,,J1772,US,,,,Public,,public,,,,,,,,,,,,,,,,,,,,POINT (-73.783743 43.098201),POINT(-73.783743 43.098201)
ELEC,Champion Parking E 16th Street - Tesla Destination,101  E 16th St,,New York,NY,10003,,212-358-1476  877-798-3752,E,,Public,24 hours daily; see valet for access,,,,,,3,,,Tesla Destination,https://www.tesla.com/destination-charging,200-8,40.736116,-73.989322,2020-11-03,114991,2021-03-11T23:22:17,P,,,2017-09-01,,,,,J1772 TESLA,US,,,,Public,,public,,,PAY_GARAGE,,,,,,,Free,,,,,,,,,,POINT (-73.989322 40.736116),POINT(-73.989322 40.736116)
ELEC,La Belle Vie Bed & Breakfast - Tesla Destination,208 Main St,,Penn Yan,NY,14527,,315-694-7273  877-798-3752,E,,Public,24 hours daily; see front desk for access,,,,,,2,,,Tesla Destination,https://www.tesla.com/destination-charging,200-9,42.663782,-77.056454,2020-11-03,115210,2021-03-11T23:22:17,P,,,2016-01-01,,,,,TESLA,US,,,,Public,,public,,,B_AND_B,,,,,,,Free,,,,,,,,,,POINT (-77.056454 42.663782),POINT(-77.056454 42.663782)
ELEC,Icon 299 Peal Street Seaport Parking - Tesla Destination,238 Pearl St,,New York,NY,10069,,212-227-2215  877-798-3752,E,,Public,24 hours daily; see valet for access,,,,,,3,,,Tesla Destination,https://www.tesla.com/destination-charging,200-8,40.707360,-74.004989,2020-11-03,115063,2021-03-11T23:22:17,P,,,2016-08-15,,,,,J1772 TESLA,US,,,,Public,,public,,,PAY_GARAGE,,,,,,,Free,,,,,,,,,,POINT (-74.004989 40.70736),POINT(-74.004989 40.707360)
ELEC,Glennpeter Jewelers,1505 Rt-9,,Clifton Park,NY,12065,,518-691-3119,E,,Public,24 hours daily,,,,,,4,,,LIVINGSTON,https://www.solution.energy/evse/,GPS,42.838795,-73.742662,2021-07-14,189516,2022-02-10T19:42:29,P,,,2020-09-25,,,,,J1772,US,,,,Public,,public,,,SHOPPING_CENTER,,,,,,,,,,,,,,,,NONE,POINT (-73.742662 42.838795),POINT(-73.742662 42.838795)
ELEC,TOWN GLENVILLE IM PARK EV3,Indian Meadows Park 1 Jason Morris Way,,Glenville,NY,12302,,888-758-4389,E,,Public,24 hours daily,,,,,,2,,,ChargePoint Network,http://www.chargepoint.com/,GPS,42.887598,-73.936759,2022-03-29,175630,2022-03-29T00:38:17,,,,2021-01-27,,,,,J1772,US,,,,Public,,public,,,,,,,,,,,,,,,,,,,,POINT (-73.936759 42.887598),POINT(-73.936759 42.887598)
ELEC,ADELPHI UNIV STATION 05,1 South Ave,,Garden City,NY,11530,,888-758-4389,E,,Public,24 hours daily,,,,,,2,,,ChargePoint Network,http://www.chargepoint.com/,GPS,40.719629,-73.650059,2022-03-29,171555,2022-03-29T00:38:17,,,,2021-01-27,,,,,J1772,US,,,,Public,,public,,,,,,,,,,,,,,,,,,,,POINT (-73.650059 40.719629),POINT(-73.650059 40.719629)
ELEC,VIDA BLD_E VIDA A LOT,2 Adventure Place,,Rochester,NY,14607,,888-758-4389,E,,Public,24 hours daily,,,,,,2,,,ChargePoint Network,http://www.chargepoint.com/,GPS,43.153142,-77.598758,2022-03-29,207623,2022-03-29T00:38:17,,,,2022-03-04,,,,,J1772,US,,,,Public,,public,,,,,,,,,,,,,,,,,,,,POINT (-77.598758 43.153142),POINT(-77.598758 43.153142)
ELEC,Marshall & Sons,701 Montauk Hwy,,Montauk,NY,11954,,866-816-7584,E,,Public - Credit card at all times,24 hours daily,A D Debit M V,,,,,4,,,EV Connect,http://evconnect.com/,GPS,41.033512,-71.946540,2020-07-13,163945,2021-03-11T23:22:17,P,,,2020-06-26,,,,,J1772,US,,,,Public - Carte de crédit en tout temps,,public,CREDIT_CARD_ALWAYS,,FUEL_RESELLER,,,,,,,,,,,,,,,,,POINT (-71.94654 41.033512),POINT(-71.946540 41.033512)
ELEC,Champion Parking 90 LLC - Tesla Destination,60 E 90th St,,New York,NY,10028,,212-828-8282  877-798-3752,E,,Public,24 hours daily; see valet for access,,,,,,3,,,Tesla Destination,https://www.tesla.com/destination-charging,GPS,40.783085,-73.956304,2020-11-03,115167,2021-03-11T23:22:17,P,,,2017-03-01,,,,,J1772 TESLA,US,,,,Public,,public,,,PAY_GARAGE,,,,,,,Free,,,,,,,,,,POINT (-73.956304 40.783085),POINT(-73.956304 40.783085)
ELEC,GGMC 91 E 9th Street - Tesla Destination,91 East 9th Street,,New York,NY,10003,,877-798-3752  877-798-3752,E,,Public,24 hours daily; for customer use only; see front desk for access,,,,,,3,,,Tesla Destination,https://www.tesla.com/destination-charging,200-8,40.730990,-73.990963,2020-11-03,168794,2021-03-11T23:22:17,P,,,2020-11-03,,,,,J1772 TESLA,US,,,,Public,,public,,,,,,,,,,Free,,,,,,,,,,POINT (-73.990963 40.73099),POINT(-73.990963 40.730990)
ELEC,New York State Department of Transportation - Taste NY Market,4640 Taconic State Pkwy N,,Lagrangeville,NY,12540,,845-849-0247,E,,Public,Store business hours,,,,,,2,,,EV Connect,http://evconnect.com/,GPS,41.656857,-73.789422,2021-09-10,94856,2021-12-06T18:36:15,P,,,2020-03-25,,,,,J1772,US,,,,Public,,public,,,GROCERY,,,,,,,Free,,,,,,,,,,POINT (-73.789422 41.656857),POINT(-73.789422 41.656857)
ELEC,Saratoga Auto Museum - Tesla Destination,110 Ave of the Pines,,Saratoga Springs,NY,12866,,518-587-1935  877-798-3752,E,,Public,24 hours daily; see front desk for access,,,,,,2,,,Tesla Destination,https://www.tesla.com/destination-charging,200-8,43.057371,-73.804293,2020-11-03,115234,2021-03-11T23:22:17,P,,,2012-10-01,,,,,TESLA,US,,,,Public,,public,,,MUSEUM,,,,,,,Free,,,,,,,,,,POINT (-73.804293 43.057371),POINT(-73.804293 43.057371)
ELEC,JATC LU41 JATC LU41,3546 California Rd,,Orchard Park,NY,14127,,888-758-4389,E,,Public,24 hours daily,,,,,,2,,,ChargePoint Network,http://www.chargepoint.com/,GPS,42.787197,-78.787821,2022-03-29,162176,2022-03-29T00:38:17,,,,2020-06-12,,,,,J1772,US,,,,Public,,public,,,,,,,,,,,,,,,,,,,,POINT (-78.787821 42.787197),POINT(-78.787821 42.787197)
ELEC,Saratoga Auto Museum,110 Avenue of the Pines,,Saratoga Springs,NY,12866,,518-587-1935,E,,Public,24 hours daily,,,,,,1,,,Non-Networked,,GPS,43.057348,-73.804726,2021-01-14,72698,2022-03-09T22:08:13,P,,,2016-01-25,,,,,J1772,US,,,,Public,,public,,,MUSEUM,,,,,,,Free,,,,,,,,,,POINT (-73.8047257907 43.0573481806),POINT(-73.804726 43.057348)
ELEC,GGMC Parking 51-53 E 76th St Carlyle Hotel - Tesla Destination,53  E 76th St,,New York,NY,10021,,212-570-7182  877-798-3752,E,,Public,24 hours daily; see valet for access,,,,,,2,,,Tesla Destination,https://www.tesla.com/destination-charging,200-8,40.774265,-73.962780,2020-11-03,115150,2021-03-11T23:22:17,P,,,2016-01-01,,,,,J1772 TESLA,US,,,,Public,,public,,,PAY_GARAGE,,,,,,,Free,,,,,,,,,,POINT (-73.96278 40.774265),POINT(-73.962780 40.774265)
ELEC,ULYSSES TOWN ULYSSES,10 Elm St,,Trumansburg,NY,14886,,888-758-4389,E,,Public,24 hours daily,,,,,,2,,,ChargePoint Network,http://www.chargepoint.com/,GPS,42.541251,-76.661435,2022-03-29,162327,2022-03-29T00:38:17,,,,2020-06-12,,,,,J1772,US,,,,Public,,public,,,,,,,,,,,,,,,,,,,,POINT (-76.661435 42.541251),POINT(-76.661435 42.541251)
ELEC,One Blue Slip-Greenpoint - Tesla Destination,1 Blue Slip,,Brooklyn,NY,11222,,718-713-8733  877-798-3752,E,,Public,24 hours daily; pay lot; see valet for access,,,,,,5,,,Tesla Destination,https://www.tesla.com/destination-charging,GPS,40.736224,-73.959356,2020-11-03,150540,2021-03-11T23:22:17,P,,,2019-09-30,,,,,J1772 TESLA,US,,,,Public,,public,,,,,,,,,,Free,,,,,,,,,,POINT (-73.959356 40.736224),POINT(-73.959356 40.736224)
ELEC,One Seneca Tower,1 HSBC Center,,Buffalo,NY,14202,,866-816-7584,E,,Public,24 hours daily,,,,,,2,,,EV Connect,http://evconnect.com/,GPS,42.879939,-78.876219,2020-04-08,123259,2021-03-11T23:22:17,P,,,2019-04-01,,,,,J1772,US,,,,Public,,public,,,OFFICE_BLDG,,,,,,,,,,,,,,,,,POINT (-78.8762193 42.8799392),POINT(-78.876219 42.879939)
ELEC,ERIE COUNTY ELLIOTT CREEK,12 Calvert Blvd,,Tonawanda,NY,14150,,888-758-4389,E,,Public,24 hours daily,,,,,,2,,,ChargePoint Network,http://www.chargepoint.com/,GPS,43.022540,-78.826160,2022-03-29,154777,2022-03-29T00:38:17,,,,2020-03-27,,,,,J1772,US,,,,Public,,public,,,,,,,,,,,,,,,,,,,,POINT (-78.82616 43.02254),POINT(-78.826160 43.022540)
ELEC,DOUBLETREEHOTEL DC FAST CHARGER,455 S Broadway,,Tarrytown,NY,10591,,888-758-4389,E,,Public,24 hours daily,,,,,,,1,,ChargePoint Network,http://www.chargepoint.com/,GPS,41.061411,-73.862829,2022-03-29,162399,2022-03-29T00:38:17,,,,2020-06-12,,,,,J1772COMBO,US,,,,Public,,public,,,,,,,,,,,,,,,,,,,,POINT (-73.862829 41.061411),POINT(-73.862829 41.061411)
ELEC,GAULT BMW STATION 01,2311 North St,,Endicott,NY,13760,,888-758-4389,E,,Public,24 hours daily,,,,,,2,,,ChargePoint Network,http://www.chargepoint.com/,GPS,42.107059,-76.035088,2022-03-29,162435,2022-03-29T00:38:17,,,,2020-06-12,,,,,J1772,US,,,,Public,,public,,,,,,,,,,,,,,,,,,,,POINT (-76.035088 42.107059),POINT(-76.035088 42.107059)
LPG,Irish Propane,70 Katherine St,At Bailey and Clinton,Buffalo,NY,14210,,716-852-3335,E,,Public,8am-4:45pm M-F,A Cash D M V,,,,,,,,,,GPS,42.860108,-78.859226,2022-03-07,13444,2022-03-07T19:49:53,P,,,1999-07-08,,,true,,,US,,,,Public,,public,,,FUEL_RESELLER,,,,,,,,,ACME,,,,,,,,POINT (-78.85922572883605 42.8601082048398),POINT(-78.859226 42.860108)
ELEC,LARKIN726RRAMPP LARKIN 2,726 Exchange St,,Buffalo,NY,14210,,888-758-4389,E,,Public,Mon 5:00pm - 10:00pm; Tue 5:00pm - 10:00pm; Wed 5:00pm - 10:00pm; Thu 5:00pm - 10:00pm; Fri 5:00pm - 10:00pm; Sat 8:00am - 10:00pm; Sun 8:00am - 10:00pm,,,,,,2,,,ChargePoint Network,http://www.chargepoint.com/,GPS,42.874889,-78.849833,2022-03-29,182984,2022-03-29T00:38:17,,,,2021-01-27,,,,,J1772,US,,,,Public,,public,,,,,,,,,,,,,,,,,,,,POINT (-78.849833 42.874889),POINT(-78.849833 42.874889)
ELEC,Rapidpark 205 W 101st Street - Tesla Destination,205 W 101st Street,,New York,NY,10025,,877-798-3752  877-798-3752,E,,Public,24 hours daily; for customer use only; see front desk for access,,,,,,3,,,Tesla Destination,https://www.tesla.com/destination-charging,200-9,40.797676,-73.968479,2020-11-03,169060,2021-03-11T23:22:17,P,,,2020-11-03,,,,,J1772 TESLA,US,,,,Public,,public,,,,,,,,,,Free,,,,,,,,,,POINT (-73.968479 40.797676),POINT(-73.968479 40.797676)
ELEC,Lake Pleasant Lodge - Tesla Destination,2839 State Rte 30,,Speculator,NY,12164,,518-548-5253  877-798-3752,E,,Public,24 hours daily; for customer use only; see front desk for access,,,,,,2,,,Tesla Destination,https://www.tesla.com/destination-charging,200-8,43.495979,-74.360195,2020-11-03,150725,2021-03-11T23:22:17,P,,,2019-09-30,,,,,TESLA,US,,,,Public,,public,,,,,,,,,,Free,,,,,,,,,,POINT (-74.360195 43.495979),POINT(-74.360195 43.495979)
ELEC,NYC FLEET DPRMBLOT8_2_L3,920 Father Capodanno Blvd,,Midland Beach,NY,10305,,888-758-4389,E,,Public,24 hours daily,,,,,,,1,,ChargePoint Network,http://www.chargepoint.com/,GPS,40.572636,-74.086160,2022-03-29,171477,2022-03-29T00:38:17,,,,2021-01-27,,,,,CHADEMO J1772COMBO,US,,,,Public,,public,,,,,,,,,,,,,,,,,,,,POINT (-74.08616 40.572636),POINT(-74.086160 40.572636)
ELEC,CHEEKTOWAGA CHEEKTOWAGA,211 Ridge Park Ave,,Cheektowaga,NY,14225,,888-758-4389,E,,Public,24 hours daily,,,,,,2,,,ChargePoint Network,http://www.chargepoint.com/,GPS,42.913478,-78.789878,2022-03-29,162313,2022-03-29T00:38:17,,,,2020-06-12,,,,,J1772,US,,,,Public,,public,,,,,,,,,,,,,,,,,,,,POINT (-78.789878 42.913478),POINT(-78.789878 42.913478)
ELEC,Schuyler County,323 Owego St,,Montour Falls,NY,14865,,866-816-7584,E,,Public - Credit card at all times,24 hours daily; Also accepts PayPal and Apple Pay,A D M V,,,,,4,,,EV Connect,http://evconnect.com/,GPS,42.340492,-76.840909,2020-12-03,168435,2021-03-11T23:22:17,LG,,,2020-09-01,,,,,J1772,US,,,,Public - Carte de crédit en tout temps,,public,CREDIT_CARD_ALWAYS,,MUNI_GOV,,,,,,,,,,,,,,,,,POINT (-76.840909 42.340492),POINT(-76.840909 42.340492)
ELEC,CCE TOMPKINS STATION ONE,615 Willow Ave,,Ithaca,NY,14850,,888-758-4389,E,,Public,24 hours daily,,,,,,2,,,ChargePoint Network,http://www.chargepoint.com/,GPS,42.450688,-76.503433,2022-03-29,165558,2022-03-29T00:38:17,,,,2020-08-27,,,,,J1772,US,,,,Public,,public,,,,,,,,,,,,,,,,,,,,POINT (-76.503433 42.450688),POINT(-76.503433 42.450688)
ELEC,Culinary Arts Center at Auburn Watson - Tesla Destination,3295 Walden Ave,,Depew,NY,14043,,716-876-8000  877-798-3752,E,,Public,24 hours daily,,,,,,2,,,Tesla Destination,https://www.tesla.com/destination-charging,200-9,42.911728,-78.694835,2020-11-03,114933,2021-03-11T23:22:17,P,,,2016-11-01,,,,,J1772 TESLA,US,,,,Public,,public,,,SHOPPING_CENTER,,,,,,,Free,,,,,,,,,,POINT (-78.694835 42.911728),POINT(-78.694835 42.911728)
ELEC,River Spring Lodge - Tesla Destination,1961 Church Rd,,Darien Center,NY,14040,,585-708-4212  877-798-3752,E,,Public - Call ahead,24 hours daily; for customer use only,,,,,,1,,,Tesla Destination,https://www.tesla.com/destination-charging,200-9,42.862450,-78.344960,2020-11-03,114932,2021-03-11T23:22:17,P,,,2017-03-01,,,,,TESLA,US,,,,Public - Appeler à l'avance,,public,CALL,,HOTEL,,,,,,,Free,,,,,,,,,,POINT (-78.34496 42.86245),POINT(-78.344960 42.862450)
ELEC,AAA Car Care Plus,8120 Main St,,Clarence,NY,14221,,716-932-3900  855-443-3873,E,,Public,24 hours daily,,,,,,1,,,Non-Networked,,GPS,42.965851,-78.692780,2020-06-09,42993,2021-03-11T23:22:17,P,,,2018-12-17,,,,,J1772,US,,,,Public,,public,,,SHOPPING_CENTER,,,,,,,Free,,,,,,,,,,POINT (-78.69278 42.965851),POINT(-78.692780 42.965851)
ELEC,THERMAL QUICK AG EV4,11 sitterly road,,Clifton Park,NY,12065,,888-758-4389,E,,Public,24 hours daily,,,,,,2,,,ChargePoint Network,http://www.chargepoint.com/,GPS,42.850800,-73.757274,2022-03-29,168029,2022-03-29T00:38:17,,,,2020-10-30,,,,,J1772,US,,,,Public,,public,,,,,,,,,,,,,,,,,,,,POINT (-73.757274 42.8508),POINT(-73.757274 42.850800)
ELEC,COLE GROUP COLONIE EAST 4,173 Doorstone Dr,,Latham,NY,12110,,888-758-4389,E,,Public,24 hours daily,,,,,,2,,,ChargePoint Network,http://www.chargepoint.com/,GPS,42.745510,-73.770770,2022-03-29,154058,2022-03-29T00:38:17,,,,2020-02-27,,,,,J1772,US,,,,Public,,public,,,,,,,,,,,,,,,,,,,,POINT (-73.77077 42.74551),POINT(-73.770770 42.745510)
ELEC,ESSEX FARMS EVSE2,2496 NY-22,,Essex,NY,12936,,888-758-4389,E,,Public,24 hours daily,,,,,,2,,,ChargePoint Network,http://www.chargepoint.com/,GPS,44.308086,-73.374580,2022-03-29,196293,2022-03-29T00:38:17,,,,2021-09-24,,,,,J1772,US,,,,Public,,public,,,,,,,,,,,,,,,,,,,,POINT (-73.37458 44.308086),POINT(-73.374580 44.308086)
ELEC,WHITE PLAINS WP CT4K-2 SALES,262 E Main St,,Elmsford,NY,10523,,888-758-4389,E,,Public,24 hours daily,,,,,,2,,,ChargePoint Network,http://www.chargepoint.com/,GPS,41.048088,-73.808500,2022-03-29,199474,2022-03-29T00:38:17,,,,2021-10-30,,,,,J1772,US,,,,Public,,public,,,,,,,,,,,,,,,,,,,,POINT (-73.8085 41.048088),POINT(-73.808500 41.048088)
ELEC,"Town of East Hampton/Montauk, NY",70 South Euclid Ave,,Montauk,NY,11954,,833-632-2778,E,,Public,24 hours daily,,,,,,,4,,Electrify America,https://www.electrifyamerica.com/,GPS,41.035911,-71.943488,2022-03-29,170247,2022-03-29T04:34:23,,,,2020-12-17,,,,,CHADEMO J1772COMBO,US,,,,Public,,public,,,,,,,,,,,,,,,,,,,,POINT (-71.943488 41.035911),POINT(-71.943488 41.035911)
ELEC,VILLAGEHALL VILLAGE HALL,76 E Market St,,Rhinebeck,NY,12572,,888-758-4389,E,,Public,24 hours daily,,,,,,2,,,ChargePoint Network,http://www.chargepoint.com/,GPS,41.926403,-73.909853,2022-03-29,162181,2022-03-29T00:38:17,,,,2020-06-12,,,,,J1772,US,,,,Public,,public,,,,,,,,,,,,,,,,,,,,POINT (-73.909853 41.926403),POINT(-73.909853 41.926403)
ELEC,Icon Parking 301 E 57 Street - Tesla Destination,301 E 57th St,,New York,NY,10022,,212-755-6223  877-798-3752,E,,Public,24 hours daily; see valet for access,,,,,,3,,,Tesla Destination,https://www.tesla.com/destination-charging,200-8,40.759484,-73.965206,2020-11-03,115086,2021-03-11T23:22:17,P,,,2016-05-01,,,,,J1772 TESLA,US,,,,Public,,public,,,PAY_GARAGE,,,,,,,Free,,,,,,,,,,POINT (-73.965206 40.759484),POINT(-73.965206 40.759484)
ELEC,MAIN 2ND FLOOR 2 NGW,1133 Route 414 Parking Garage,,Waterloo,NY,13165,,888-758-4389,E,,Public,24 hours daily,,,,,,2,,,ChargePoint Network,http://www.chargepoint.com/,GPS,42.969166,-76.845266,2022-03-29,180149,2022-03-29T00:38:17,,,,2021-01-27,,,,,J1772,US,,,,Public,,public,,,,,,,,,,,,,,,,,,,,POINT (-76.845266 42.969166),POINT(-76.845266 42.969166)
ELEC,MPG 340 East 93rd - Tesla Destination,340 E 93rd St,,New York,NY,10128,,212-490-3460  877-798-3752,E,,Public,24 hours daily; see valet for access,,,,,,3,,,Tesla Destination,https://www.tesla.com/destination-charging,200-8,40.781375,-73.946721,2020-11-03,115103,2021-03-11T23:22:17,P,,,2018-11-01,,,,,J1772 TESLA,US,,,,Public,,public,,,PAY_GARAGE,,,,,,,Free,,,,,,,,,,POINT (-73.946721 40.781375),POINT(-73.946721 40.781375)
ELEC,Buffalo Niagara International Airport,4200 Genesee St,"Located on Level 1, section F-2 in the Daily/Hourly Parking Garage",Buffalo,NY,14225,,716-630-6191,E,,Public,24 hours daily,,,,,,3,,,Non-Networked,,GPS,42.933441,-78.731633,2021-05-06,63479,2022-02-10T19:42:29,P,,,2014-12-31,,,,,J1772,US,,,,Public,,public,,,AIRPORT,,,,,,,Free,,,,,,,,,,POINT (-78.731633 42.933441),POINT(-78.731633 42.933441)
ELEC,"FUCCILLOHYUNDAI CPF50 #3",1910 Alvin Rd,,Grand Island,NY,14072,,888-758-4389,E,,Public,24 hours daily,,,,,,1,,,ChargePoint Network,http://www.chargepoint.com/,GPS,43.011574,-78.968556,2022-03-29,202145,2022-03-29T00:38:17,,,,2021-12-08,,,,,J1772,US,,,,Public,,public,,,,,,,,,,,,,,,,,,,,POINT (-78.968556 43.011574),POINT(-78.968556 43.011574)
ELEC,LACROIX COURT LACROIX APTS,12 Lacroix Ct Dr,,Irondequoit,NY,14609,,888-758-4389,E,,Public,24 hours daily,,,,,,1,,,ChargePoint Network,http://www.chargepoint.com/,GPS,43.195304,-77.566518,2022-03-29,213014,2022-03-29T00:38:17,,,,2022-03-29,,,,,J1772,US,,,,Public,,public,,,,,,,,,,,,,,,,,,,,POINT (-77.566518 43.195304),POINT(-77.566518 43.195304)
ELEC,TCR TOWNE EV STATION 3,12 California  ave,,Albany,NY,12205,,888-758-4389,E,,Public,24 hours daily,,,,,,2,,,ChargePoint Network,http://www.chargepoint.com/,GPS,42.704114,-73.813740,2022-03-29,169945,2022-03-29T00:38:17,,,,2020-12-05,,,,,J1772,US,,,,Public,,public,,,,,,,,,,,,,,,,,,,,POINT (-73.81374 42.704114),POINT(-73.813740 42.704114)
ELEC,RRH NEWARK WEST GW3,1200 Driving Park Ave,,Newark,NY,14513,,888-758-4389,E,,Public,24 hours daily,,,,,,2,,,ChargePoint Network,http://www.chargepoint.com/,GPS,43.060887,-77.104487,2022-03-29,174418,2022-03-29T00:38:17,,,,2021-01-27,,,,,J1772,US,,,,Public,,public,,,,,,,,,,,,,,,,,,,,POINT (-77.104487 43.060887),POINT(-77.104487 43.060887)
ELEC,SRYMCASSB MALTA 1.4,8-10 Medical Park Dr,,Ballston Spa,NY,12020,,888-758-4389,E,,Public,24 hours daily,,,,,,2,,,ChargePoint Network,http://www.chargepoint.com/,GPS,42.975723,-73.806080,2022-03-29,182288,2022-03-29T00:38:17,,,,2021-01-27,,,,,J1772,US,,,,Public,,public,,,,,,,,,,,,,,,,,,,,POINT (-73.80608 42.975723),POINT(-73.806080 42.975723)
ELEC,DELLA HONDA SHOP02,702 NY-3,,Plattsburgh,NY,12901,,888-758-4389,E,,Public,24 hours daily,,,,,,1,,,ChargePoint Network,http://www.chargepoint.com/,GPS,44.695726,-73.515764,2022-03-29,154583,2022-03-29T00:38:17,,,,2020-03-20,,,,,J1772,US,,,,Public,,public,,,,,,,,,,,,,,,,,,,,POINT (-73.515764 44.695726),POINT(-73.515764 44.695726)
ELEC,OUTSIDE SHOP02,175 Freemans Bridge Rd,,Schenectady,NY,12302,,888-758-4389,E,,Public,24 hours daily,,,,,,1,,,ChargePoint Network,http://www.chargepoint.com/,GPS,42.845987,-73.943170,2022-03-29,180110,2022-03-29T00:38:17,,,,2021-01-27,,,,,J1772,US,,,,Public,,public,,,,,,,,,,,,,,,,,,,,POINT (-73.94317 42.845987),POINT(-73.943170 42.845987)
ELEC,Black Brook Town Offices,18 N Main St,,Au Sable Forks,NY,12912,,866-816-7584,E,,Public,24 hours daily,,,,,,2,,,EV Connect,http://evconnect.com/,GPS,44.442528,-73.674603,2020-04-08,123072,2021-03-11T23:22:17,P,,,2019-04-01,,,,,J1772,US,,,,Public,,public,,,OFFICE_BLDG,,,,,,,,,,,,,,,,,POINT (-73.6746031 44.4425278),POINT(-73.674603 44.442528)
ELEC,NYSE Thruway - Exit 49 - Depew,6623 Transit Rd,,Williamsville,NY,14221,,866-816-7584,E,,Public,24 hours daily,,,,,,2,,,EV Connect,http://evconnect.com/,GPS,42.946406,-78.697270,2021-05-06,187175,2021-12-06T18:36:15,P,,,2021-03-22,,,,,J1772,US,,,,Public,,public,,,PARKING_LOT,,,,,,,,,,,,,,,,,POINT (-78.69727 42.946406),POINT(-78.697270 42.946406)
ELEC,BURNS MGT OXFORD 3,6203 Johnston Rd,,Albany,NY,12203,,888-758-4389,E,,Public,24 hours daily,,,,,,2,,,ChargePoint Network,http://www.chargepoint.com/,GPS,42.685360,-73.870690,2022-03-29,119018,2022-03-29T00:38:17,,,,2019-03-08,,,,,J1772,US,,,,Public,,public,,,,,,,,,,,,,,,,,,,,POINT (-73.87069 42.68536),POINT(-73.870690 42.685360)
ELEC,799 SENECA STATION 7,799 Seneca St,,Buffalo,NY,14210,,888-758-4389,E,,Public,Mon 5:00pm - 10:00pm; Tue 5:00pm - 10:00pm; Wed 5:00pm - 10:00pm; Thu 5:00pm - 10:00pm; Fri 5:00pm - 10:00pm; Sat 8:00am - 10:00pm; Sun 8:00am - 10:00pm,,,,,,1,,,ChargePoint Network,http://www.chargepoint.com/,GPS,42.875098,-78.847577,2022-03-29,191247,2022-03-29T00:38:17,,,,2021-06-19,,,,,J1772,US,,,,Public,,public,,,,,,,,,,,,,,,,,,,,POINT (-78.847577 42.875098),POINT(-78.847577 42.875098)
ELEC,TOK EVSE TOWN OF KINDERH,3211 Church St,,Valatie,NY,12184,,888-758-4389,E,,Public,24 hours daily,,,,,,2,,,ChargePoint Network,http://www.chargepoint.com/,GPS,42.415531,-73.676855,2022-03-29,162133,2022-03-29T00:38:17,,,,2020-06-12,,,,,J1772,US,,,,Public,,public,,,,,,,,,,,,,,,,,,,,POINT (-73.676855 42.415531),POINT(-73.676855 42.415531)
ELEC,CITY AMSTERDAM BRIDGE ST EV 3,55 Bridge St Bridge Street Parking Lot,,Amsterdam,NY,12010,,888-758-4389,E,,Public,24 hours daily,,,,,,2,,,ChargePoint Network,http://www.chargepoint.com/,GPS,42.934486,-74.197391,2022-03-29,181934,2022-03-29T00:38:17,,,,2021-01-27,,,,,J1772,US,,,,Public,,public,,,,,,,,,,,,,,,,,,,,POINT (-74.197391 42.934486),POINT(-74.197391 42.934486)
ELEC,RRH CARTER 2FL NGW2,1415 Portland Ave,,Rochester,NY,14621,,888-758-4389,E,,Public,24 hours daily,,,,,,2,,,ChargePoint Network,http://www.chargepoint.com/,GPS,43.191585,-77.588747,2022-03-29,174455,2022-03-29T00:38:17,,,,2021-01-27,,,,,J1772,US,,,,Public,,public,,,,,,,,,,,,,,,,,,,,POINT (-77.588747 43.191585),POINT(-77.588747 43.191585)
ELEC,STONY BROOK UNV AUTOMOTIVE,Service Rd,,Stony Brook,NY,11790,,888-758-4389,E,,Public,24 hours daily,,,,,,2,,,ChargePoint Network,http://www.chargepoint.com/,GPS,40.915315,-73.129239,2022-03-29,201582,2022-03-29T00:38:17,,,,2021-11-25,,,,,J1772,US,,,,Public,,public,,,,,,,,,,,,,,,,,,,,POINT (-73.129239 40.915315),POINT(-73.129239 40.915315)
ELEC,City Parking Garment One Garage - Tesla Destination,155 E 34th St,,New York,NY,10016,,212-683-2928  877-798-3752,E,,Public,24 hours daily; for customer use only; see valet for access,,,,,,3,,,Tesla Destination,https://www.tesla.com/destination-charging,200-9,40.746200,-73.978528,2020-11-03,115023,2021-03-11T23:22:17,P,,,2017-09-01,,,,,J1772 TESLA,US,,,,Public,,public,,,PAY_GARAGE,,,,,,,Free,,,,,,,,,,POINT (-73.978528 40.7462),POINT(-73.978528 40.746200)
ELEC,RRH PORTLAND L1,1445 Portland Ave,,Rochester,NY,14621,,888-758-4389,E,,Public,24 hours daily,,,,,,2,,,ChargePoint Network,http://www.chargepoint.com/,GPS,43.192753,-77.585720,2022-03-29,156614,2022-03-29T00:38:17,,,,2020-05-22,,,,,J1772,US,,,,Public,,public,,,,,,,,,,,,,,,,,,,,POINT (-77.58572 43.192753),POINT(-77.585720 43.192753)
ELEC,Jamestown Park and Ride,2870 N Main St Extension,,Jamestown,NY,14701,,866-816-7584,E,,Public,24 hours daily,,,,,,2,,,EV Connect,http://evconnect.com/,GPS,42.122334,-79.240661,2020-06-09,123095,2021-03-11T23:22:17,P,,,2019-04-01,,,,,J1772,US,,,,Public,,public,,,PARKING_LOT,,,,,,,,,,,,,,,,,POINT (-79.240661 42.122334),POINT(-79.240661 42.122334)
ELEC,NATIONAL GRID SUNY 1,135 Western Ave,,Albany,NY,12203,,888-758-4389,E,,Public,24 hours daily,,,,,,2,,,ChargePoint Network,http://www.chargepoint.com/,GPS,42.659167,-73.772672,2022-03-29,162201,2022-03-29T00:38:17,,,,2020-06-12,,,,,J1772,US,,,,Public,,public,,,,,,,,,,,,,,,,,,,,POINT (-73.772672 42.659167),POINT(-73.772672 42.659167)
ELEC,5935 Broadway,5935 Broadway,,Bronx,NY,10463,,888-356-8911,E,,Public,24 hours daily,,,,,,4,,,FLO,https://flo.ca/,GPS,40.888461,-73.899119,2022-03-29,191505,2022-03-29T04:48:10,,,,2021-06-25,,,,,J1772,US,,,,Public,,public,,,,,,,,,,,,,,,,,,,,POINT (-73.899119 40.888461),POINT(-73.899119 40.888461)
ELEC,LaGrangeville Tops Market,16 John J Wagner Way,,LaGrangeville,NY,12540,,855-900-7584,E,,Public,24 hours daily,,,,,,,4,,Greenlots,http://greenlots.com/,GPS,41.667907,-73.795294,2022-03-29,197115,2022-03-29T04:31:38,,,,2021-10-05,,,,,CHADEMO J1772COMBO,US,,,,Public,,public,,,,,,,,,,,,,,,,,,,,POINT (-73.795294 41.667907),POINT(-73.795294 41.667907)
ELEC,SUNY BUFFALO PARKER 7,185 Hayes Rd,,Buffalo,NY,14214,,888-758-4389,E,,Public,24 hours daily,,,,,,2,,,ChargePoint Network,http://www.chargepoint.com/,GPS,42.951165,-78.822439,2022-03-29,182224,2022-03-29T00:38:17,,,,2021-01-27,,,,,J1772,US,,,,Public,,public,,,,,,,,,,,,,,,,,,,,POINT (-78.822439 42.951165),POINT(-78.822439 42.951165)
ELEC,Best Western Plus The Hammondsport Hotel,8440 NY-54,,Hammondsport,NY,14840,,607-224-4120,E,,Public,24 hours daily; guest use only; see front desk for access,,,,,,1,,,Non-Networked,,GPS,42.398830,-77.227276,2020-06-09,157969,2021-03-11T23:22:17,P,,,2020-05-15,,,,,J1772,US,,,,Public,,public,,,HOTEL,,,,,,,,,,,,,,,,,POINT (-77.227276 42.39883),POINT(-77.227276 42.398830)
ELEC,59 Allen Street - Tesla Supercharger,59 Allen Street,,New York,NY,10002,,877-798-3752,E,,Public,24 hours daily; for Tesla use only,,,,,,,4,,Tesla,https://www.tesla.com/supercharger,GPS,40.717153,-73.991869,2021-10-11,116808,2021-11-04T18:37:47,P,,,2018-12-01,,,,,TESLA,US,,,,Public,,public,,,PARKING_LOT,,,,,,,$0.28 per kWh; $0.26 per minute above 60 kW and $0.13 per minute at or below 60 kW,,,,,,,,,,POINT (-73.991869 40.717153),POINT(-73.991869 40.717153)
ELEC,RRH UNITY POB 3,1561 Long Pond Rd,,Rochester,NY,14626,,888-758-4389,E,,Public,24 hours daily,,,,,,2,,,ChargePoint Network,http://www.chargepoint.com/,GPS,43.190998,-77.703970,2022-03-29,174810,2022-03-29T00:38:17,,,,2021-01-27,,,,,J1772,US,,,,Public,,public,,,,,,,,,,,,,,,,,,,,POINT (-77.70397 43.190998),POINT(-77.703970 43.190998)
ELEC,GARBER ROC SHOP 01,3925 W Henrietta Rd,,Rochester,NY,14623,,888-758-4389,E,,Public,24 hours daily,,,,,,1,,,ChargePoint Network,http://www.chargepoint.com/,GPS,43.074708,-77.644885,2022-03-29,180099,2022-03-29T00:38:17,,,,2021-01-27,,,,,J1772,US,,,,Public,,public,,,,,,,,,,,,,,,,,,,,POINT (-77.644885 43.074708),POINT(-77.644885 43.074708)
ELEC,Shults Nissan Subaru,311 Fluvanna Avenue,,Jamestown,NY,14701,,888-998-2546,E,,Public,MON: 24 hours | TUE: 24 hours | WED: 24 hours | THU: 24 hours | FRI: 24 hours | SAT: 24 hours | SUN: 24 hours,,,,,,2,,,Blink Network,http://www.blinkcharging.com/,GPS,42.115844,-79.253222,2022-03-29,191308,2022-03-29T02:05:23,,,,2021-06-22,,,,,J1772,US,,,,Public,,public,,,,,,,,,,Level 2: $0.59 per kWh,,,,,,,,,,POINT (-79.2532225 42.1158438),POINT(-79.253222 42.115844)
ELEC,Riverhead Town Center - Tesla Supercharger,1761 Old Country Road,,Riverhead,NY,11901,,877-798-3752,E,,Public,24 hours daily; for Tesla use only,,,,,,,8,,Tesla,https://www.tesla.com/supercharger,GPS,40.923424,-72.703538,2021-10-11,170430,2021-11-04T18:37:47,P,,,2020-12-14,,,,,TESLA,US,,,,Public,,public,,,SHOPPING_MALL,,,,,,,$0.28 per kWh; $0.26 per minute above 60 kW and $0.13 per minute at or below 60 kW,,,,,,,,,,POINT (-72.703538 40.923424),POINT(-72.703538 40.923424)
ELEC,NATIONAL GRID GLENS FALLS,126 South St,,Glens Falls,NY,12801,,888-758-4389,E,,Public,24 hours daily,,,,,,2,,,ChargePoint Network,http://www.chargepoint.com/,GPS,43.305308,-73.649371,2022-03-29,162218,2022-03-29T00:38:17,,,,2020-06-12,,,,,J1772,US,,,,Public,,public,,,,,,,,,,,,,,,,,,,,POINT (-73.649371 43.305308),POINT(-73.649371 43.305308)
ELEC,MTP Parking 363 Bond Street - Tesla Destination,363 Bond St,,Brooklyn,NY,11231,,212-575-5335  877-798-3752,E,,Public,24 hours daily; pay lot; see valet for access,,,,,,4,,,Tesla Destination,https://www.tesla.com/destination-charging,200-9,40.677977,-73.990135,2020-11-03,122476,2021-03-11T23:22:17,P,,,2019-03-01,,,,,TESLA,US,,,,Public,,public,,,,,,,,,,Free,,,,,,,,,,POINT (-73.990135 40.677977),POINT(-73.990135 40.677977)
ELEC,MUNICIPAL BLDG TRAIN STATION 1,2 Veterans Plaza,,Croton-on-Hudson,NY,10520,,888-758-4389,E,,Public,24 hours daily,,,,,,2,,,ChargePoint Network,http://www.chargepoint.com/,GPS,41.191670,-73.882470,2022-03-29,143300,2022-03-29T00:38:17,,,,2019-08-15,,,,,J1772,US,,,,Public,,public,,,,,,,,,,,,,,,,,,,,POINT (-73.88247 41.19167),POINT(-73.882470 41.191670)
ELEC,Stone Ridge Public Library,3700 Main St,,Stone Ridge,NY,12484,,845-687-7023,E,,Public,24 hours daily,,,,,,2,,,Non-Networked,,GPS,41.849440,-74.142960,2022-03-07,167130,2022-03-07T19:49:53,P,,,2020-09-21,,,,,J1772,US,,,,Public,,public,,,LIBRARY,,,,,,,Free,,,,,,,,,,POINT (-74.14296 41.84944),POINT(-74.142960 41.849440)
ELEC,Spin Test Facility,1 Research Cir.,,Niskayuna,NY,12309,,800-663-5633,E,,Public,MO: Closed; TU: Closed; WE: Closed; TH: Closed; FR: Closed; SA: Closed; SU: Closed,,,,,,10,,,SemaCharge Network,https://semaconnect.com/,GPS,42.831453,-73.880977,2022-03-29,195162,2022-03-29T00:25:21,,,,2021-09-05,,,,,J1772,US,,,,Public,,public,,,,,,,,,,FREE,,,,,,,,,,POINT (-73.880977172244 42.831452667189),POINT(-73.880977 42.831453)
ELEC,ULSTER COUNTY STATION 1,317 shamrock lane,,Kingston,NY,12401,,888-758-4389,E,,Public,24 hours daily,,,,,,2,,,ChargePoint Network,http://www.chargepoint.com/,GPS,41.936001,-74.028210,2022-03-29,212141,2022-03-29T00:38:17,,,,2022-03-22,,,,,J1772,US,,,,Public,,public,,,,,,,,,,,,,,,,,,,,POINT (-74.02821 41.936001),POINT(-74.028210 41.936001)
ELEC,RRH CARTER 2 FL NG3,1415 Portland Ave,,Rochester,NY,14621,,888-758-4389,E,,Public,24 hours daily,,,,,,2,,,ChargePoint Network,http://www.chargepoint.com/,GPS,43.191539,-77.588742,2022-03-29,145395,2022-03-29T00:38:17,,,,2019-09-20,,,,,J1772,US,,,,Public,,public,,,,,,,,,,,,,,,,,,,,POINT (-77.588742 43.191539),POINT(-77.588742 43.191539)
ELEC,4545 Center Blvd-TF Cornerstone LIC - Tesla Destination,4545 Center Blvd,,Long Island City,NY,11109,,718-440-3408  877-798-3752,E,,Public,24 hours daily; pay lot,,,,,,8,,,Tesla Destination,https://www.tesla.com/destination-charging,200-9,40.748121,-73.955990,2020-11-03,150600,2021-03-11T23:22:17,P,,,2019-09-30,,,,,TESLA,US,,,,Public,,public,,,,,,,,,,Free,,,,,,,,,,POINT (-73.95599 40.748121),POINT(-73.955990 40.748121)
ELEC,ATRIUM EVCHARGE PARKPLAZA EV1,56 Clifton Country Rd,,Clifton park,NY,12065,,888-758-4389,E,,Public,24 hours daily,,,,,,2,,,ChargePoint Network,http://www.chargepoint.com/,GPS,42.856457,-73.783120,2022-03-29,175313,2022-03-29T00:38:17,,,,2021-01-27,,,,,J1772,US,,,,Public,,public,,,,,,,,,,,,,,,,,,,,POINT (-73.78312 42.856457),POINT(-73.783120 42.856457)
